{"8220DB000848": {"id": "66186", "routes": ["11", "116", "145", "155", "32x", "41x", "46a", "700", "7b", "7d", "84x", "904", "910"], "operator": "Dublin Bus", "latitude": 53.32972799, "longitude": -6.248887998, "stopno": "848", "address": "Sussex Road"}, "8220DB002795": {"id": "65202", "routes": ["116", "145", "155", "41x", "46a", "7b", "7d"], "operator": "Dublin Bus", "latitude": 53.32852998, "longitude": -6.246264621, "stopno": "2795", "address": "Leeson Village"}, "8220DB000756": {"id": "798", "routes": ["116", "145", "155", "25x", "39a", "41x", "46a", "51x", "66x", "67x", "700", "77x", "7b", "7d", "845"], "operator": "Dublin Bus", "latitude": 53.32639976, "longitude": -6.242598747, "stopno": "756", "address": "Royal Hospital"}, "8220DB000757": {"id": "46823", "routes": ["116", "145", "155", "25x", "39a", "41x", "46a", "51x", "66x", "67x", "77x", "7b", "7d"], "operator": "Dublin Bus", "latitude": 53.32408134, "longitude": -6.23958651, "stopno": "757", "address": "Donnybrook Village"}, "8220DB000758": {"id": "24577", "routes": ["116", "145", "155", "25x", "39a", "41x", "46a", "51x", "66x", "67x", "77x", "7b", "7d", "84x"], "operator": "Dublin Bus", "latitude": 53.32268694, "longitude": -6.23767738, "stopno": "758", "address": "Victoria Avenue"}, "8220DB000759": {"id": "59866", "routes": ["116", "145", "155", "25x", "32x", "39a", "41x", "46a", "51x", "66x", "67x", "700", "77x", "7b", "7d", "845", "904", "910"], "operator": "Dublin Bus", "latitude": 53.32034885, "longitude": -6.233345517, "stopno": "759", "address": "Donnybrook Stadium"}, "8220DB000760": {"id": "56622", "routes": ["116", "126u", "145", "155", "181", "25x", "32x", "39a", "41x", "46a", "51x", "66x", "67x", "77x", "7b", "7d", "84x"], "operator": "Go-Ahead", "latitude": 53.31833019, "longitude": -6.230561956, "stopno": "760", "address": "Donnybrook Church"}, "8220DB000761": {"id": "24970", "routes": ["116", "145", "155", "25x", "32x", "39a", "46a", "51x", "66x", "67x", "77x", "7b", "7d", "845"], "operator": "Dublin Bus", "latitude": 53.3161004, "longitude": -6.227487214, "stopno": "761", "address": "Teresian School"}, "8220DB000762": {"id": "14984", "routes": ["116", "145", "155", "25x", "32x", "39a", "41x", "46a", "51x", "66x", "67x", "700", "77x", "7b", "7d", "904", "910"], "operator": "Dublin Bus", "latitude": 53.31451706, "longitude": -6.224370944, "stopno": "762", "address": "RTE"}, "8220DB000763": {"id": "16102", "routes": ["116", "145", "155", "25x", "27x", "32x", "39a", "41x", "46a", "47", "51x", "66x", "67x", "77x", "7b", "7d"], "operator": "Dublin Bus", "latitude": 53.31232014, "longitude": -6.221100319, "stopno": "763", "address": "Belfield Court"}, "8250DB002007": {"id": "41932", "routes": ["116", "145", "155", "17", "175", "181", "46a", "47", "700", "7b", "7d", "84x", "ucd-6"], "operator": "Go-Ahead", "latitude": 53.30887504, "longitude": -6.216111205, "stopno": "2007", "address": "Woodbine Road"}, "8250DB002008": {"id": "1886", "routes": ["116", "145", "155", "17", "175", "46a", "47", "7b", "7d"], "operator": "Go-Ahead", "latitude": 53.3056004, "longitude": -6.211115757, "stopno": "2008", "address": "Seafield Road"}, "8250DB002009": {"id": "43025", "routes": ["116", "145", "155", "17", "46a", "47", "700", "7b", "7d"], "operator": "Go-Ahead", "latitude": 53.30333957, "longitude": -6.207804139, "stopno": "2009", "address": "Radisson Hotel"}, "8250DB002010": {"id": "46005", "routes": ["116", "145", "155", "17", "181", "46a", "47", "7b", "7d"], "operator": "Go-Ahead", "latitude": 53.29889724, "longitude": -6.20467441, "stopno": "2010", "address": "Booterstown Avenue"}, "8250DB000435": {"id": "15192", "routes": ["116", "145", "155", "46a", "47", "700", "7b", "7d"], "operator": "Dublin Bus", "latitude": 53.29598904, "longitude": -6.203746226, "stopno": "435", "address": "Sycamore Cresent"}, "8250DB002011": {"id": "31296", "routes": ["116", "47"], "operator": "Dublin Bus", "latitude": 53.29159401, "longitude": -6.200780458, "stopno": "2011", "address": "Stillorgan College"}, "8250DB002012": {"id": "32164", "routes": ["116", "47"], "operator": "Dublin Bus", "latitude": 53.28992463, "longitude": -6.199155582, "stopno": "2012", "address": "Stillorgan SC"}, "8250DB003322": {"id": "30938", "routes": ["116", "47", "700", "75", "75a"], "operator": "Go-Ahead", "latitude": 53.28808415, "longitude": -6.201677943, "stopno": "3322", "address": "Stillorgan SC"}, "8250DB003563": {"id": "52807", "routes": ["116", "47", "75", "75a"], "operator": "Go-Ahead", "latitude": 53.2886319, "longitude": -6.204624907, "stopno": "3563", "address": "Kilmacud Road Lower"}, "8250DB000444": {"id": "22394", "routes": ["11", "116", "47", "75", "75a"], "operator": "Go-Ahead", "latitude": 53.28813647, "longitude": -6.20754062, "stopno": "444", "address": "Kilmacud Park"}, "8250DB000445": {"id": "2571", "routes": ["11", "116", "47", "75", "75a"], "operator": "Go-Ahead", "latitude": 53.28568853, "longitude": -6.208528028, "stopno": "445", "address": "Kilmacud House"}, "8250DB004779": {"id": "21177", "routes": ["11", "116", "47", "700", "75a"], "operator": "Go-Ahead", "latitude": 53.28317879, "longitude": -6.208992975, "stopno": "4779", "address": "St Raphaela's Road"}, "8250DB007057": {"id": "5031", "routes": ["11", "116", "47", "75a"], "operator": "Go-Ahead", "latitude": 53.2801061, "longitude": -6.210276235, "stopno": "7057", "address": "Stillorgan Luas"}, "8250DB004847": {"id": "39210", "routes": ["11", "116", "75a"], "operator": "Go-Ahead", "latitude": 53.27981511, "longitude": -6.213047797, "stopno": "4847", "address": "Blackthorn Drive"}, "8250DB004848": {"id": "21583", "routes": ["11", "116", "75a"], "operator": "Go-Ahead", "latitude": 53.27781391, "longitude": -6.218064987, "stopno": "4848", "address": "Maple Avenue"}, "8250DB004350": {"id": "49928", "routes": ["114", "116"], "operator": "Go-Ahead", "latitude": 53.27618843, "longitude": -6.222976143, "stopno": "4350", "address": "Moreen Avenue stop 4350"}, "8250DB005143": {"id": "64380", "routes": ["114", "116"], "operator": "Go-Ahead", "latitude": 53.27566696, "longitude": -6.227796261, "stopno": "5143", "address": "Blackthorn Green"}, "8250DB002837": {"id": "44468", "routes": ["116", "44", "44b"], "operator": "Dublin Bus", "latitude": 53.27736363, "longitude": -6.230680242, "stopno": "2837", "address": "Clonard Road"}, "8250DB002838": {"id": "50082", "routes": ["116", "44", "44b"], "operator": "Dublin Bus", "latitude": 53.27975686, "longitude": -6.232051048, "stopno": "2838", "address": "Ballawley Park"}, "8250DB002839": {"id": "28250", "routes": ["116", "44", "44b"], "operator": "Dublin Bus", "latitude": 53.28286971, "longitude": -6.234067218, "stopno": "2839", "address": "Balally Road"}, "8250DB002840": {"id": "17182", "routes": ["116", "44", "44b"], "operator": "Dublin Bus", "latitude": 53.28433401, "longitude": -6.23705148, "stopno": "2840", "address": "Balally Drive"}, "8250DB002845": {"id": "53179", "routes": ["116", "14", "14c", "175", "75", "75a"], "operator": "Go-Ahead", "latitude": 53.27954676, "longitude": -6.244596873, "stopno": "2845", "address": "Wesley College"}, "8250DB002846": {"id": "15669", "routes": ["116", "14", "14c", "175", "75", "75a"], "operator": "Go-Ahead", "latitude": 53.27723212, "longitude": -6.247945817, "stopno": "2846", "address": "Ballinteer Park"}, "8250DB002847": {"id": "62839", "routes": ["116", "14", "14c", "175", "75", "75a"], "operator": "Go-Ahead", "latitude": 53.27625399, "longitude": -6.249890244, "stopno": "2847", "address": "Ballinteer Court"}, "8250DB004397": {"id": "16692", "routes": ["116", "14", "14c", "175", "75", "75a"], "operator": "Go-Ahead", "latitude": 53.2755142, "longitude": -6.251539946, "stopno": "4397", "address": "The Rise"}, "8250DB002848": {"id": "11423", "routes": ["116", "14", "14c", "75", "75a"], "operator": "Go-Ahead", "latitude": 53.27535591, "longitude": -6.255460126, "stopno": "2848", "address": "Broadford Rise"}, "8250DB002849": {"id": "21888", "routes": ["116", "14", "14c", "75", "75a"], "operator": "Go-Ahead", "latitude": 53.27743621, "longitude": -6.255120467, "stopno": "2849", "address": "Broadford Close"}, "8250DB002850": {"id": "51954", "routes": ["116", "14", "14c", "75", "75a"], "operator": "Go-Ahead", "latitude": 53.27968149, "longitude": -6.25561386, "stopno": "2850", "address": "Broadford Drive"}, "8250DB002851": {"id": "56115", "routes": ["116", "14", "14c", "75", "75a"], "operator": "Go-Ahead", "latitude": 53.28069064, "longitude": -6.258242214, "stopno": "2851", "address": "Broadford Walk"}, "8250DB002852": {"id": "19195", "routes": ["116", "14", "14c", "75", "75a"], "operator": "Go-Ahead", "latitude": 53.28069562, "longitude": -6.26104644, "stopno": "2852", "address": "Ballinteer Comm Sch"}, "8250DB004987": {"id": "54282", "routes": ["116", "161"], "operator": "Go-Ahead", "latitude": 53.2773585, "longitude": -6.263341319, "stopno": "4987", "address": "Heather Lawn"}, "8250DB002978": {"id": "25093", "routes": ["116", "16", "16c", "175"], "operator": "Go-Ahead", "latitude": 53.27699445, "longitude": -6.265500456, "stopno": "2978", "address": "Grange Road"}, "8250DB002979": {"id": "19244", "routes": ["116", "16", "161", "16c", "175"], "operator": "Go-Ahead", "latitude": 53.27846521, "longitude": -6.268365144, "stopno": "2979", "address": "Marley Park"}, "8230DB002980": {"id": "14190", "routes": ["116", "16", "161", "16c", "175"], "operator": "Go-Ahead", "latitude": 53.28001653, "longitude": -6.273071367, "stopno": "2980", "address": "Three Rock Rovers"}, "8230DB002981": {"id": "48510", "routes": ["116", "16", "161", "16c", "175"], "operator": "Go-Ahead", "latitude": 53.2812724, "longitude": -6.277249911, "stopno": "2981", "address": "Eden Avenue"}, "8230DB002954": {"id": "26547", "routes": ["116", "15d", "161", "61"], "operator": "Go-Ahead", "latitude": 53.2780415, "longitude": -6.286317462, "stopno": "2954", "address": "Whitechurch Green"}, "8230DB002955": {"id": "32162", "routes": ["116", "15d", "61"], "operator": "Dublin Bus", "latitude": 53.27787197, "longitude": -6.289533367, "stopno": "2955", "address": "Ballyboden Church"}, "8230DB007067": {"id": "66128", "routes": ["116", "15d", "161", "61"], "operator": "Go-Ahead", "latitude": 53.27783383, "longitude": -6.288755104, "stopno": "7067", "address": "Whitechurch Way"}, "8230DB002956": {"id": "9061", "routes": ["116", "15d", "161", "61"], "operator": "Go-Ahead", "latitude": 53.27812019, "longitude": -6.286164354, "stopno": "2956", "address": "Glenmore Park"}, "8230DB002965": {"id": "30220", "routes": ["116", "15d", "161", "61"], "operator": "Go-Ahead", "latitude": 53.28030415, "longitude": -6.28427735, "stopno": "2965", "address": "Whitechurch Road"}, "8230DB002967": {"id": "45311", "routes": ["116", "16", "161", "16d", "175"], "operator": "Go-Ahead", "latitude": 53.2813395, "longitude": -6.276917275, "stopno": "2967", "address": "Eden Avenue"}, "8230DB002968": {"id": "51383", "routes": ["116", "16", "161", "16d", "175"], "operator": "Go-Ahead", "latitude": 53.28032933, "longitude": -6.273568645, "stopno": ""}, "8250DB002969": {"id": "61945", "routes": ["116", "16", "161", "16d", "175"], "operator": "Go-Ahead", "latitude": 53.27940273, "longitude": -6.270411749, "stopno": "2969", "address": "Marley Park"}, "8250DB002970": {"id": "17764", "routes": ["116", "16", "161", "16d", "175"], "operator": "Go-Ahead", "latitude": 53.27817063, "longitude": -6.267267347, "stopno": "2970", "address": "Grange Road"}, "8250DB004988": {"id": "16603", "routes": ["116", "161"], "operator": "Go-Ahead", "latitude": 53.27765231, "longitude": -6.263149456, "stopno": "4988", "address": "Heather Lawn"}, "8250DB002853": {"id": "10853", "routes": ["116", "14", "75", "75a"], "operator": "Go-Ahead", "latitude": 53.28082534, "longitude": -6.260696242, "stopno": "2853", "address": "Ballinteer Comm Sch"}, "8250DB002854": {"id": "60916", "routes": ["116", "14", "75", "75a"], "operator": "Go-Ahead", "latitude": 53.28072154, "longitude": -6.257281152, "stopno": "2854", "address": "Broadford Walk"}, "8250DB002855": {"id": "3045", "routes": ["116", "14", "75", "75a"], "operator": "Go-Ahead", "latitude": 53.27918962, "longitude": -6.255169005, "stopno": "2855", "address": "Chestnut Grove"}, "8250DB002856": {"id": "59653", "routes": ["116", "14", "75", "75a"], "operator": "Go-Ahead", "latitude": 53.27719148, "longitude": -6.25498048, "stopno": "2856", "address": "Broadford Close"}, "8250DB002857": {"id": "1389", "routes": ["116", "14", "75", "75a"], "operator": "Go-Ahead", "latitude": 53.27477027, "longitude": -6.255364017, "stopno": "2857", "address": "Ballinteer Drive"}, "8250DB002858": {"id": "54139", "routes": ["116", "14", "175", "75", "75a"], "operator": "Go-Ahead", "latitude": 53.27518603, "longitude": -6.252453043, "stopno": "2858", "address": "Ballinteer Avenue"}, "8250DB002859": {"id": "41097", "routes": ["116", "14", "175", "75", "75a"], "operator": "Go-Ahead", "latitude": 53.2769905, "longitude": -6.248630505, "stopno": "2859", "address": "Ballinteer Park"}, "8250DB002860": {"id": "35026", "routes": ["116", "14", "175", "75", "75a"], "operator": "Go-Ahead", "latitude": 53.27816728, "longitude": -6.246138024, "stopno": "2860", "address": "Mayfield Terrace"}, "8250DB002861": {"id": "10894", "routes": ["116", "14", "175", "75", "75a"], "operator": "Go-Ahead", "latitude": 53.27957834, "longitude": -6.244910506, "stopno": "2861", "address": "Wesley College"}, "8250DB002829": {"id": "45324", "routes": ["116", "44", "44b"], "operator": "Dublin Bus", "latitude": 53.28441153, "longitude": -6.236823314, "stopno": "2829", "address": "Balally Drive"}, "8250DB002830": {"id": "39164", "routes": ["116", "44", "44b"], "operator": "Dublin Bus", "latitude": 53.28235912, "longitude": -6.233578355, "stopno": "2830", "address": "Dun Emer Road"}, "8250DB002831": {"id": "43965", "routes": ["116", "44", "44b"], "operator": "Dublin Bus", "latitude": 53.27905763, "longitude": -6.231570033, "stopno": "2831", "address": "Balally Hill"}, "8250DB002832": {"id": "45114", "routes": ["116", "44", "44b"], "operator": "Dublin Bus", "latitude": 53.27725094, "longitude": -6.23035499, "stopno": "2832", "address": "Clonard Road"}, "8250DB004349": {"id": "2785", "routes": ["114", "116"], "operator": "Go-Ahead", "latitude": 53.2758455, "longitude": -6.227713898, "stopno": "4349", "address": "Blackthorn Drive"}, "8250DB003184": {"id": "9840", "routes": ["114", "116"], "operator": "Go-Ahead", "latitude": 53.2761924, "longitude": -6.223845715, "stopno": "3184", "address": "Moreen Avenue"}, "8250DB000449": {"id": "14871", "routes": ["11", "114", "116", "75a"], "operator": "Go-Ahead", "latitude": 53.27632283, "longitude": -6.216927379, "stopno": "449", "address": "Blackthorn Road"}, "8250DB000450": {"id": "1612", "routes": ["11", "114", "116", "75a"], "operator": "Go-Ahead", "latitude": 53.27509405, "longitude": -6.213499669, "stopno": "450", "address": "Heather Road"}, "8250DB003181": {"id": "27191", "routes": ["11", "114", "116", "47", "700", "75a"], "operator": "Go-Ahead", "latitude": 53.27673392, "longitude": -6.207777904, "stopno": "3181", "address": "Carmanhall Road"}, "8250DB000451": {"id": "58704", "routes": ["11", "116", "47"], "operator": "Dublin Bus", "latitude": 53.2783061, "longitude": -6.207727113, "stopno": "451", "address": "Blackthorn Drive"}, "8250DB000447": {"id": "26968", "routes": ["11", "116", "47", "75a"], "operator": "Go-Ahead", "latitude": 53.28021817, "longitude": -6.210556493, "stopno": "447", "address": "Stillorgan Luas"}, "8250DB005045": {"id": "10416", "routes": ["11", "116", "47", "700", "75a"], "operator": "Go-Ahead", "latitude": 53.28357696, "longitude": -6.209171297, "stopno": "5045", "address": "St Raphaela's Road"}, "8250DB004460": {"id": "51726", "routes": ["11", "116", "47", "75", "75a"], "operator": "Go-Ahead", "latitude": 53.28728248, "longitude": -6.208131349, "stopno": "4460", "address": "Whately Place"}, "8250DB000453": {"id": "8273", "routes": ["11", "116", "47", "75", "75a"], "operator": "Go-Ahead", "latitude": 53.28858628, "longitude": -6.207566788, "stopno": "453", "address": "Kilmacud Park"}, "8250DB004477": {"id": "58690", "routes": ["116", "47", "75", "75a"], "operator": "Go-Ahead", "latitude": 53.28897261, "longitude": -6.205165619, "stopno": "4477", "address": "Kilmacud Road Lower"}, "8250DB003321": {"id": "48382", "routes": ["116", "47", "700", "75", "75a"], "operator": "Go-Ahead", "latitude": 53.28846936, "longitude": -6.200401779, "stopno": "3321", "address": "Stillorgan SC"}, "8250DB004727": {"id": "53817", "routes": ["116", "118", "133", "145", "155", "181", "46a", "46e", "7b", "7d", "84x"], "operator": "Dublin Bus", "latitude": 53.29081171, "longitude": -6.19778321, "stopno": "4727", "address": "Laurence Park"}, "8250DB004728": {"id": "45648", "routes": ["116", "118", "145", "155", "46a", "46e", "47", "7b", "7d"], "operator": "Dublin Bus", "latitude": 53.29333789, "longitude": -6.201982289, "stopno": "4728", "address": "Oatlands College"}, "8250DB000461": {"id": "53313", "routes": ["116", "118", "145", "155", "46a", "46e", "47", "700", "7b", "7d"], "operator": "Dublin Bus", "latitude": 53.2947995, "longitude": -6.203541111, "stopno": "461", "address": "Stillorgan Pk Hotel"}, "8250DB002068": {"id": "67002", "routes": ["116", "118", "145", "155", "17", "181", "46a", "46e", "47", "7b", "7d"], "operator": "Go-Ahead", "latitude": 53.29809576, "longitude": -6.204573003, "stopno": "2068", "address": "Sycamore Cresent"}, "8250DB002069": {"id": "35118", "routes": ["116", "118", "145", "155", "17", "46a", "46e", "47", "7b", "7d"], "operator": "Go-Ahead", "latitude": 53.29977469, "longitude": -6.205642853, "stopno": "2069", "address": "Booterstown Avenue"}, "8250DB002070": {"id": "24419", "routes": ["116", "118", "145", "155", "17", "46a", "46e", "47", "700", "7b", "7d"], "operator": "Go-Ahead", "latitude": 53.30306607, "longitude": -6.208145702, "stopno": "2070", "address": "St Thomas Road"}, "8250DB002084": {"id": "7442", "routes": ["116", "118", "145", "155", "17", "175", "46a", "46e", "47", "7b", "7d"], "operator": "Go-Ahead", "latitude": 53.30552676, "longitude": -6.21159902, "stopno": "2084", "address": "Seafield Road"}, "8250DB000768": {"id": "44324", "routes": ["116", "118", "145", "155", "181", "2", "25x", "27x", "32x", "39", "39a", "41x", "46a", "46e", "47", "533", "66x", "67x", "700", "7b", "7d", "824", "845", "84x", "ucd-6", "x2"], "operator": "Dublin Bus", "latitude": 53.30941819, "longitude": -6.21877483, "stopno": "768", "address": "UCD N11 Entrance"}, "8220DB000769": {"id": "59225", "routes": ["116", "118", "145", "155", "25x", "39", "39a", "41x", "46a", "46e", "66x", "67x", "7b", "7d"], "operator": "Dublin Bus", "latitude": 53.31190109, "longitude": -6.221327857, "stopno": "769", "address": "Belfield Court"}, "8220DB000770": {"id": "54589", "routes": ["116", "118", "145", "155", "25x", "32x", "39", "39a", "41x", "46a", "46e", "66x", "67x", "700", "7b", "7d", "904", "910"], "operator": "Dublin Bus", "latitude": 53.31463619, "longitude": -6.225731811, "stopno": "770", "address": "RTE"}, "8220DB000771": {"id": "34016", "routes": ["116", "118", "145", "155", "25x", "39", "39a", "41x", "46a", "46e", "66x", "67x", "7b", "7d"], "operator": "Dublin Bus", "latitude": 53.31588007, "longitude": -6.227781522, "stopno": "771", "address": "Teresian School"}, "8220DB000772": {"id": "49598", "routes": ["116", "118", "133", "145", "155", "25x", "39", "39a", "41x", "46a", "46e", "66x", "67x", "740", "740-a", "7b", "7d", "845", "84x", "904", "910"], "operator": "Dublin Bus", "latitude": 53.31848526, "longitude": -6.231321064, "stopno": "772", "address": "Donnybrook Garage"}, "8220DB000773": {"id": "38314", "routes": ["116", "118", "145", "155", "181", "25x", "32x", "39", "39a", "41x", "46a", "46e", "66x", "67x", "700", "7b", "7d"], "operator": "Dublin Bus", "latitude": 53.31991635, "longitude": -6.233273319, "stopno": "773", "address": "Donnybrook Road"}, "8220DB000774": {"id": "2634", "routes": ["116", "118", "145", "155", "25x", "32x", "39", "39a", "41x", "46a", "46e", "66x", "67x", "7b", "7d"], "operator": "Dublin Bus", "latitude": 53.32161212, "longitude": -6.235499996, "stopno": "774", "address": "Donnybrook Garda Stn"}, "8220DB000775": {"id": "3683", "routes": ["116", "118", "145", "155", "25x", "39", "39a", "41x", "46a", "46e", "66x", "67x", "7b", "7d", "824", "84x"], "operator": "Dublin Bus", "latitude": 53.32348971, "longitude": -6.239085447, "stopno": "775", "address": "Donnybrook Village"}, "8220DB000776": {"id": "36808", "routes": ["116", "118", "145", "155", "25x", "39", "39a", "41x", "46a", "46e", "66x", "67x", "700", "7b", "7d", "845"], "operator": "Dublin Bus", "latitude": 53.32547924, "longitude": -6.241735821, "stopno": "776", "address": "Morehampton Terrace"}, "8220DB000777": {"id": "57914", "routes": ["116", "118", "145", "155", "25x", "39", "39a", "41x", "46a", "46e", "66x", "67x", "7b", "7d", "847"], "operator": "Dublin Bus", "latitude": 53.32697216, "longitude": -6.243626144, "stopno": "777", "address": "Royal Hospital"}, "8220DB000906": {"id": "51266", "routes": ["11", "116", "118", "145", "155", "32x", "41x", "46a", "46e", "700", "740", "740-a", "7b", "7d", "84x"], "operator": "Dublin Bus", "latitude": 53.32881077, "longitude": -6.247634377, "stopno": "906", "address": "Leeson St Upper"}, "8220DB000907": {"id": "54324", "routes": ["11", "116", "118", "145", "155", "46a", "46e", "7b", "7d"], "operator": "Dublin Bus", "latitude": 53.32971936, "longitude": -6.250750109, "stopno": "907", "address": "St Johns Ambulance"}, "8220DB000908": {"id": "15426", "routes": ["11", "116", "118", "145", "155", "181", "46a", "46e", "700", "7b", "7d", "845", "904", "910"], "operator": "Dublin Bus", "latitude": 53.33115429, "longitude": -6.252373034, "stopno": "908", "address": "Grand Parade"}, "8220DB000909": {"id": "52402", "routes": ["11", "116", "118", "145", "155", "32x", "41x", "46a", "46e", "7b", "7d", "84x"], "operator": "Dublin Bus", "latitude": 53.33314766, "longitude": -6.254078364, "stopno": "909", "address": "Fitzwilliam Place"}, "8220DB000786": {"id": "47545", "routes": ["11", "116", "118", "145", "155", "181", "25x", "37", "38", "38a", "38b", "38d", "39", "39a", "39x", "46a", "46e", "533", "66x", "67x", "70", "700", "7b", "7d", "824", "845", "904", "910"], "operator": "Dublin Bus", "latitude": 53.33514671, "longitude": -6.256174036, "stopno": "786", "address": "Embassy of Malta"}, "8220DB000792": {"id": "47515", "routes": ["116", "118", "145", "155", "46a", "46e", "7b", "7d", "84x"], "operator": "Dublin Bus", "latitude": 53.34044899, "longitude": -6.258585808, "stopno": "792", "address": "Dawson Street"}, "8220DB007586": {"id": "55871", "routes": ["116", "118", "145", "179", "193", "194", "194-a", "37", "39", "39a", "39x", "70", "7b", "7d", "84x", "910"], "operator": "Dublin Bus", "latitude": 53.34195536, "longitude": -6.253418146, "stopno": "7586", "address": "National Gallery"}, "8220DB007587": {"id": "17306", "routes": ["116", "118", "145", "25x", "32x", "37", "39", "39a", "39x", "41x", "66x", "67x", "70", "700", "7b", "7d", "84x"], "operator": "Dublin Bus", "latitude": 53.34464202, "longitude": -6.252136809, "stopno": "7587", "address": "Science Gallery"}, "8220DB007588": {"id": "30147", "routes": ["116", "145", "37", "39", "39a", "534", "70", "757", "833"], "operator": "Dublin Bus", "latitude": 53.3449966, "longitude": -6.254255077, "stopno": "7588", "address": "Pearse Street"}, "8220DB000281": {"id": "65145", "routes": ["116", "13", "155", "39n", "4", "7", "7a", "7b", "7d", "88n", "9"], "operator": "Dublin Bus", "latitude": 53.35090995, "longitude": -6.260968421, "stopno": "281", "address": "O'Connell St Upper"}, "8220DB000261": {"id": "10449", "routes": ["11", "116", "13", "40"], "operator": "Dublin Bus", "latitude": 53.35405628, "longitude": -6.262853361, "stopno": "261", "address": "Parnell Square East"}, "8250DB003283": {"id": "5562", "routes": ["118", "44", "63", "63a"], "operator": "Go-Ahead", "latitude": 53.23579735, "longitude": -6.193833179, "stopno": "3283", "address": "Kiltiernan Village"}, "8250DB003284": {"id": "11453", "routes": ["118", "44", "63", "63a"], "operator": "Go-Ahead", "latitude": 53.23927942, "longitude": -6.196443348, "stopno": "3284", "address": "Golden Ball"}, "8250DB003310": {"id": "7424", "routes": ["118", "44"], "operator": "Dublin Bus", "latitude": 53.24254382, "longitude": -6.19892822, "stopno": "3310", "address": "Kilternan NS"}, "8250DB003481": {"id": "45336", "routes": ["118", "44"], "operator": "Dublin Bus", "latitude": 53.24388071, "longitude": -6.199366551, "stopno": "3481", "address": "Kilternan Church"}, "8250DB003482": {"id": "62847", "routes": ["118", "44"], "operator": "Dublin Bus", "latitude": 53.24614249, "longitude": -6.200934908, "stopno": "3482", "address": "Palmerston FC"}, "8250DB003483": {"id": "32589", "routes": ["118", "44"], "operator": "Dublin Bus", "latitude": 53.24961231, "longitude": -6.207518116, "stopno": "3483", "address": "Cairnfort"}, "8250DB003484": {"id": "53956", "routes": ["118", "44"], "operator": "Dublin Bus", "latitude": 53.25271887, "longitude": -6.213877712, "stopno": "3484", "address": "Stepaside Lane"}, "8250DB003485": {"id": "40591", "routes": ["118", "44", "47"], "operator": "Dublin Bus", "latitude": 53.25522255, "longitude": -6.215407098, "stopno": "3485", "address": "Kilgobbin Heights"}, "8250DB003486": {"id": "28160", "routes": ["118", "44", "47"], "operator": "Dublin Bus", "latitude": 53.25932249, "longitude": -6.211893714, "stopno": "3486", "address": "Castle Lodge"}, "8250DB003487": {"id": "4375", "routes": ["118", "44", "47"], "operator": "Dublin Bus", "latitude": 53.26224006, "longitude": -6.211652057, "stopno": "3487", "address": "Ballyogan Road"}, "8250DB007415": {"id": "45260", "routes": ["118", "47"], "operator": "Dublin Bus", "latitude": 53.26566132, "longitude": -6.210834641, "stopno": "7415", "address": "Glencairn Luas"}, "8250DB007416": {"id": "53678", "routes": ["118", "47"], "operator": "Dublin Bus", "latitude": 53.26897773, "longitude": -6.211415814, "stopno": "7416", "address": "Mount Eagle Park"}, "8250DB007325": {"id": "42059", "routes": ["118", "47"], "operator": "Dublin Bus", "latitude": 53.2719333, "longitude": -6.20652433, "stopno": "7325", "address": "Clayton Hotel"}, "8250DB003317": {"id": "53809", "routes": ["1"], "operator": "Dublin Bus", "latitude": 53.27389417, "longitude": -6.200654282, "stopno": ""}, "8250DB003318": {"id": "45551", "routes": ["1"], "operator": "Dublin Bus", "latitude": 53.2797765, "longitude": -6.197347811, "stopno": ""}, "8250DB003320": {"id": "16082", "routes": ["118", "143"], "operator": "Dublin Bus", "latitude": 53.28198767, "longitude": -6.194975107, "stopno": ""}, "8250DB002064": {"id": "6831", "routes": ["118", "145", "155", "46a", "75", "75a", "84x"], "operator": "Go-Ahead", "latitude": 53.28272564, "longitude": -6.193849161, "stopno": "2064", "address": "Brewery Road"}, "8250DB002065": {"id": "9306", "routes": ["118", "145", "155", "46a", "75", "75a"], "operator": "Go-Ahead", "latitude": 53.28479921, "longitude": -6.19485659, "stopno": "2065", "address": "Merville Road"}, "8220DB000303": {"id": "37803", "routes": ["118", "193", "194", "194-x", "27b", "500-n", "500-x", "501", "501-x", "503", "505-x", "61", "84x"], "operator": "Dublin Bus", "latitude": 53.34806, "longitude": -6.255992453, "stopno": "303", "address": "Eden Quay"}, "8220DB006122": {"id": "40535", "routes": [""], "operator": "Dublin Bus", "latitude": 53.38637271, "longitude": -6.274301664, "stopno": "6122", "address": "St Pappin's Road"}, "8220DB000035": {"id": "8467", "routes": [""], "operator": "Dublin Bus", "latitude": 53.38620679, "longitude": -6.270910693, "stopno": "35", "address": "Dean Swift Road"}, "8220DB000036": {"id": "38214", "routes": [""], "operator": "Dublin Bus", "latitude": 53.38612685, "longitude": -6.26787707, "stopno": "36", "address": "Maolbuille Road"}, "8220DB000037": {"id": "1248", "routes": ["11", "13", "155", "4", "70d", "9"], "operator": "Dublin Bus", "latitude": 53.3853464, "longitude": -6.264886981, "stopno": "37", "address": "DCU Ballymun Road"}, "8220DB000038": {"id": "59030", "routes": ["11", "13", "155", "4", "70d", "9"], "operator": "Dublin Bus", "latitude": 53.38223659, "longitude": -6.265509521, "stopno": "38", "address": "Hampstead Avenue"}, "8220DB000039": {"id": "35597", "routes": ["11", "13", "155", "4", "70d", "9"], "operator": "Dublin Bus", "latitude": 53.38041419, "longitude": -6.265658759, "stopno": "39", "address": "The Rise"}, "8220DB000040": {"id": "40755", "routes": ["11", "155", "4", "9"], "operator": "Dublin Bus", "latitude": 53.37666077, "longitude": -6.264668969, "stopno": "40", "address": "Stella Avenue"}, "8220DB000041": {"id": "66659", "routes": ["11", "900"], "operator": "Dublin Bus", "latitude": 53.37555927, "longitude": -6.261858006, "stopno": "41", "address": "Home Farm Road"}, "8220DB000042": {"id": "48590", "routes": [""], "operator": "Dublin Bus", "latitude": 53.37465027, "longitude": -6.25746119, "stopno": "42", "address": "Corpus Christi NS"}, "8220DB000043": {"id": "38591", "routes": [""], "operator": "Dublin Bus", "latitude": 53.37386122, "longitude": -6.25390131, "stopno": "43", "address": "Achill Road"}, "8220DB000044": {"id": "4394", "routes": ["1", "11", "13", "16", "16c", "16d", "33", "41", "41b", "41c", "41d", "44"], "operator": "Dublin Bus", "latitude": 53.37301741, "longitude": -6.252132303, "stopno": "44", "address": "Skylon Hotel"}, "8220DB07603": {"id": "44273", "routes": ["1", "11", "13", "16", "16c", "16d", "180", "33", "41", "41b", "41c", "41d", "44"], "operator": "Dublin Bus", "latitude": 53.37157673, "longitude": -6.253183204, "stopno": "7603", "address": "St Patrick's College"}, "8220DB000045": {"id": "4920", "routes": ["1", "11", "13", "16", "16c", "16d", "33", "41", "41b", "41c", "41d", "44", "900", "901", "901-m", "910"], "operator": "Dublin Bus", "latitude": 53.36993643, "longitude": -6.254106941, "stopno": "45", "address": "DCU St Patrick's"}, "8220DB000046": {"id": "3046", "routes": ["1", "11", "13", "16", "16c", "16d", "33", "41", "41b", "41c", "41d", "44", "842"], "operator": "Dublin Bus", "latitude": 53.36713102, "longitude": -6.255258557, "stopno": "46", "address": "Botanic Avenue"}, "8220DB000047": {"id": "29565", "routes": ["1", "11", "13", "16", "16c", "16d", "33", "41", "41b", "41c", "41d", "44", "700", "740", "740-a", "904", "910"], "operator": "Dublin Bus", "latitude": 53.36391612, "longitude": -6.257298257, "stopno": "47", "address": "Drumcondra Rail Stn"}, "8220DB000048": {"id": "40027", "routes": ["1", "11", "13", "16", "16c", "16d", "33", "41", "41b", "41c", "41d", "44", "900", "901", "901-m"], "operator": "Dublin Bus", "latitude": 53.36225739, "longitude": -6.258808412, "stopno": "48", "address": "Fitzroy Avenue"}, "8220DB000049": {"id": "52831", "routes": ["1", "11", "13", "16", "16c", "16d", "33", "40", "40b", "40d", "41", "41b", "41c", "41d", "44"], "operator": "Dublin Bus", "latitude": 53.36000424, "longitude": -6.260853508, "stopno": "49", "address": "Dorset Street Lower"}, "8220DB000051": {"id": "25315", "routes": ["1", "11", "122", "13", "16", "16c", "16d", "180", "33", "40", "40b", "40d", "41", "41b", "41c", "41d", "44", "901", "901-m", "904", "910"], "operator": "Dublin Bus", "latitude": 53.35798985, "longitude": -6.263249251, "stopno": "51", "address": "Temple Street"}, "8220DB000052": {"id": "41167", "routes": ["1", "11", "122", "13", "16", "16c", "16d", "33", "40", "40b", "40d", "41", "41b", "41c", "41d", "44"], "operator": "Dublin Bus", "latitude": 53.35679465, "longitude": -6.264499748, "stopno": "52", "address": "Dorset Street Upper"}, "8220DB000271": {"id": "82", "routes": ["1", "11", "122", "44", "53", "747"], "operator": "Dublin Bus", "latitude": 53.34859636, "longitude": -6.25948542, "stopno": "271", "address": "O'Connell St Lower"}, "8220DB000404": {"id": "48447", "routes": ["11", "37", "38", "38a", "38b", "38d", "39", "39a", "70", "824"], "operator": "Dublin Bus", "latitude": 53.34266333, "longitude": -6.256347892, "stopno": "404", "address": "Nassau Street"}, "8220DB000747": {"id": "1178", "routes": ["11", "145", "155", "33d", "37", "38", "38a", "38b", "38d", "39", "39a", "46a", "70", "7b", "7d"], "operator": "Dublin Bus", "latitude": 53.3399308, "longitude": -6.255723519, "stopno": "747", "address": "Kildare Street"}, "8220DB000842": {"id": "45750", "routes": ["11", "145", "155", "32x", "41x", "46a", "757", "7b", "7d"], "operator": "Dublin Bus", "latitude": 53.33725198, "longitude": -6.256313389, "stopno": "842", "address": "Stephen's Green East"}, "8220DB000845": {"id": "16803", "routes": ["11", "145", "155", "181", "37", "41x", "46a", "533", "700", "7b", "7d", "824", "904", "910"], "operator": "Dublin Bus", "latitude": 53.33545345, "longitude": -6.256251618, "stopno": "845", "address": "Leeson St Lower"}, "8220DB000846": {"id": "41029", "routes": ["11", "126u", "145", "155", "32x", "37", "41x", "46a", "7b", "7d", "84x", "984-n"], "operator": "Go-Ahead", "latitude": 53.33345373, "longitude": -6.254110908, "stopno": "846", "address": "Fitzwilliam Place"}, "8220DB000847": {"id": "46693", "routes": ["11", "145", "155", "181", "2", "41x", "46a", "7b", "7d", "845", "847", "904", "910", "x2"], "operator": "Dublin Bus", "latitude": 53.33160145, "longitude": -6.25221962, "stopno": "847", "address": "Leeson St Upper"}, "8220DB000849": {"id": "29179", "routes": ["11", "18"], "operator": "Go-Ahead", "latitude": 53.32789827, "longitude": -6.247927009, "stopno": "849", "address": "Appian Way"}, "8220DB000850": {"id": "34779", "routes": ["11", "18"], "operator": "Go-Ahead", "latitude": 53.32608574, "longitude": -6.251199031, "stopno": "850", "address": "Chelmsford Road"}, "8220DB000851": {"id": "57881", "routes": ["11", "18"], "operator": "Go-Ahead", "latitude": 53.32509971, "longitude": -6.253221016, "stopno": "851", "address": "Chelmsford Road"}, "8220DB000852": {"id": "1881", "routes": ["11", "180", "44", "61"], "operator": "Dublin Bus", "latitude": 53.32442927, "longitude": -6.252858085, "stopno": "852", "address": "Ranelagh"}, "8220DB000853": {"id": "42868", "routes": ["11", "44", "61"], "operator": "Dublin Bus", "latitude": 53.32259277, "longitude": -6.248369577, "stopno": "853", "address": "Sandford Road"}, "8220DB000854": {"id": "56933", "routes": ["11", "44", "61"], "operator": "Dublin Bus", "latitude": 53.32163167, "longitude": -6.246577563, "stopno": "854", "address": "Larch Grove"}, "8220DB000855": {"id": "39292", "routes": ["11", "44", "61"], "operator": "Dublin Bus", "latitude": 53.3193023, "longitude": -6.242815366, "stopno": "855", "address": "Sandford Road"}, "8220DB000856": {"id": "1581", "routes": [""], "operator": "Dublin Bus", "latitude": 53.31765511, "longitude": -6.24082668, "stopno": "856", "address": "Clonskeagh Road"}, "8220DB000857": {"id": "52008", "routes": [""], "operator": "Dublin Bus", "latitude": 53.31656738, "longitude": -6.23837983, "stopno": "857", "address": "Clonskeagh Hospital"}, "8220DB000858": {"id": "6270", "routes": [""], "operator": "Dublin Bus", "latitude": 53.31409447, "longitude": -6.238301572, "stopno": "858", "address": "Clonskeagh"}, "8250DB000859": {"id": "25414", "routes": [""], "operator": "Dublin Bus", "latitude": 53.31184114, "longitude": -6.238484419, "stopno": "859", "address": "Whitethorn Road"}, "8250DB000860": {"id": "8795", "routes": [""], "operator": "Dublin Bus", "latitude": 53.30818685, "longitude": -6.236924124, "stopno": "860", "address": "Wynnsward Drive"}, "8250DB000861": {"id": "7979", "routes": ["11", "17"], "operator": "Go-Ahead", "latitude": 53.30517043, "longitude": -6.23595301, "stopno": "861", "address": "Roebuck Road"}, "8250DB000862": {"id": "23517", "routes": ["11", "17"], "operator": "Go-Ahead", "latitude": 53.30360798, "longitude": -6.234231824, "stopno": "862", "address": "Islamic Centre"}, "8250DB003014": {"id": "16074", "routes": [""], "operator": "Dublin Bus", "latitude": 53.30014894, "longitude": -6.233114227, "stopno": "3014", "address": "Goatstown Road"}, "8250DB003015": {"id": "24783", "routes": [""], "operator": "Dublin Bus", "latitude": 53.29846863, "longitude": -6.23375372, "stopno": "3015", "address": "Larchfield Road"}, "8250DB003016": {"id": "1906", "routes": [""], "operator": "Dublin Bus", "latitude": 53.29642898, "longitude": -6.233192781, "stopno": "3016", "address": "Willowfield Avenue"}, "8250DB003017": {"id": "39840", "routes": [""], "operator": "Dublin Bus", "latitude": 53.29433993, "longitude": -6.231118751, "stopno": "3017", "address": "Hollywood Park"}, "8250DB003018": {"id": "46377", "routes": [""], "operator": "Dublin Bus", "latitude": 53.29202026, "longitude": -6.228649435, "stopno": "3018", "address": "Drummartin Road"}, "8250DB003019": {"id": "10701", "routes": [""], "operator": "Dublin Bus", "latitude": 53.29026699, "longitude": -6.227401946, "stopno": "3019", "address": "Eden Park Drive"}, "8250DB003020": {"id": "58010", "routes": [""], "operator": "Dublin Bus", "latitude": 53.28919741, "longitude": -6.22498623, "stopno": "3020", "address": "Drummartin Close"}, "8250DB003021": {"id": "49398", "routes": [""], "operator": "Dublin Bus", "latitude": 53.28908025, "longitude": -6.221346096, "stopno": "3021", "address": "Lower Kilmacud Rd"}, "8250DB003022": {"id": "46116", "routes": [""], "operator": "Dublin Bus", "latitude": 53.2888451, "longitude": -6.217035895, "stopno": "3022", "address": "Mount Anville NS"}, "8250DB000441": {"id": "47305", "routes": [""], "operator": "Dublin Bus", "latitude": 53.28894125, "longitude": -6.2150519, "stopno": "441", "address": "Redesdale Road"}, "8250DB000442": {"id": "33222", "routes": [""], "operator": "Dublin Bus", "latitude": 53.28921027, "longitude": -6.212010676, "stopno": "442", "address": "Dale Drive"}, "8250DB000443": {"id": "54762", "routes": [""], "operator": "Dublin Bus", "latitude": 53.2891298, "longitude": -6.209044034, "stopno": "443", "address": "South Avenue"}, "8250DB000454": {"id": "27674", "routes": [""], "operator": "Dublin Bus", "latitude": 53.28911613, "longitude": -6.209929607, "stopno": "454", "address": "South Avenue"}, "8250DB004475": {"id": "59577", "routes": [""], "operator": "Dublin Bus", "latitude": 53.28906431, "longitude": -6.212466772, "stopno": "4475", "address": "Dale Drive"}, "8250DB003023": {"id": "7480", "routes": [""], "operator": "Dublin Bus", "latitude": 53.28878713, "longitude": -6.217968302, "stopno": "3023", "address": "Mount Anville NS"}, "8250DB003024": {"id": "66569", "routes": [""], "operator": "Dublin Bus", "latitude": 53.28897599, "longitude": -6.222190423, "stopno": "3024", "address": "Drummartin Park"}, "8250DB003025": {"id": "47592", "routes": [""], "operator": "Dublin Bus", "latitude": 53.28900152, "longitude": -6.225714349, "stopno": "3025", "address": "Drummartin Close"}, "8250DB003026": {"id": "6063", "routes": [""], "operator": "Dublin Bus", "latitude": 53.29085058, "longitude": -6.227962805, "stopno": "3026", "address": "Drummartin Road"}, "8250DB003027": {"id": "22387", "routes": [""], "operator": "Dublin Bus", "latitude": 53.29219672, "longitude": -6.22903216, "stopno": "3027", "address": "Knocknashee"}, "8250DB003028": {"id": "42908", "routes": [""], "operator": "Dublin Bus", "latitude": 53.29470702, "longitude": -6.231628648, "stopno": "3028", "address": "Goatstown Road"}, "8250DB003029": {"id": "18472", "routes": [""], "operator": "Dublin Bus", "latitude": 53.29630433, "longitude": -6.233272938, "stopno": "3029", "address": "Goatstown Avenue"}, "8250DB003030": {"id": "66209", "routes": [""], "operator": "Dublin Bus", "latitude": 53.29915719, "longitude": -6.233515255, "stopno": "3030", "address": "Larchfield Road"}, "8250DB003031": {"id": "48074", "routes": [""], "operator": "Dublin Bus", "latitude": 53.30142217, "longitude": -6.233511786, "stopno": "3031", "address": "Roebuck Downs"}, "8250DB000875": {"id": "10150", "routes": ["11", "17"], "operator": "Go-Ahead", "latitude": 53.30447299, "longitude": -6.235591624, "stopno": "875", "address": "White Oaks"}, "8250DB000876": {"id": "26804", "routes": ["11", "142", "17"], "operator": "Go-Ahead", "latitude": 53.30522322, "longitude": -6.237091259, "stopno": "876", "address": "Gledswood Drive"}, "8250DB000878": {"id": "25469", "routes": [""], "operator": "Dublin Bus", "latitude": 53.30815336, "longitude": -6.237090577, "stopno": "878", "address": "Clonskeagh Road"}, "8250DB000879": {"id": "58508", "routes": [""], "operator": "Dublin Bus", "latitude": 53.3095042, "longitude": -6.23787531, "stopno": "879", "address": "Annsbrook"}, "8250DB000880": {"id": "34885", "routes": [""], "operator": "Dublin Bus", "latitude": 53.31231378, "longitude": -6.238840158, "stopno": "880", "address": "Richview Office Park"}, "8220DB000881": {"id": "41230", "routes": [""], "operator": "Dublin Bus", "latitude": 53.31456357, "longitude": -6.238417332, "stopno": "881", "address": "Clonskeagh"}, "8220DB000882": {"id": "7125", "routes": [""], "operator": "Dublin Bus", "latitude": 53.31670466, "longitude": -6.239154676, "stopno": "882", "address": "Clonskeagh Hospital"}, "8220DB000883": {"id": "60825", "routes": [""], "operator": "Dublin Bus", "latitude": 53.31768516, "longitude": -6.241035583, "stopno": "883", "address": "Eglinton Road"}, "8220DB000884": {"id": "14948", "routes": ["11", "44", "61"], "operator": "Dublin Bus", "latitude": 53.31999699, "longitude": -6.244212844, "stopno": "884", "address": "Norwood Park"}, "8220DB000885": {"id": "9171", "routes": ["11", "44", "61"], "operator": "Dublin Bus", "latitude": 53.32125897, "longitude": -6.246292621, "stopno": "885", "address": "Hollybank Ave Lower"}, "8220DB000886": {"id": "39272", "routes": ["11", "44", "61"], "operator": "Dublin Bus", "latitude": 53.3225974, "longitude": -6.248684633, "stopno": "886", "address": "Merton Drive"}, "8220DB000887": {"id": "38287", "routes": ["11", "44", "61"], "operator": "Dublin Bus", "latitude": 53.32420775, "longitude": -6.252461807, "stopno": "887", "address": "Ranelagh"}, "8220DB000903": {"id": "53144", "routes": ["11", "18"], "operator": "Go-Ahead", "latitude": 53.32558343, "longitude": -6.252495657, "stopno": "903", "address": "Chelmsford Road"}, "8220DB000904": {"id": "64455", "routes": ["11", "18"], "operator": "Go-Ahead", "latitude": 53.32741744, "longitude": -6.248847516, "stopno": "904", "address": "Appian Way"}, "8220DB000793": {"id": "37597", "routes": ["11", "37", "38", "38a", "38b", "38d", "39", "39a", "39x", "44", "61", "70"], "operator": "Dublin Bus", "latitude": 53.34085979, "longitude": -6.258403869, "stopno": "793", "address": "Dawson Street"}, "8220DB000320": {"id": "10952", "routes": ["11", "153", "16", "16c", "25n", "33n", "39n", "41n", "46a", "46e", "67n", "69n", "700", "70n", "7b", "7d", "88n"], "operator": "Dublin Bus", "latitude": 53.34564563, "longitude": -6.259305233, "stopno": "320", "address": "Westmoreland Street"}, "8220DB000278": {"id": "11628", "routes": ["1", "11", "16", "16c", "44", "46a", "46e", "700"], "operator": "Dublin Bus", "latitude": 53.35135317, "longitude": -6.261160681, "stopno": "278", "address": "O'Connell St Upper"}, "8220DB000010": {"id": "61537", "routes": ["1", "11", "39n", "44", "88n"], "operator": "Dublin Bus", "latitude": 53.3533921, "longitude": -6.265389124, "stopno": "10", "address": "Parnell Square West"}, "8220DB000012": {"id": "6367", "routes": ["1", "11", "122", "16", "44"], "operator": "Dublin Bus", "latitude": 53.35680494, "longitude": -6.264589471, "stopno": "12", "address": "Upper Dorset Street"}, "8220DB000014": {"id": "27267", "routes": ["1", "11", "122", "13", "16", "180", "40", "40b", "40d", "44", "901"], "operator": "Dublin Bus", "latitude": 53.35853124, "longitude": -6.262776506, "stopno": "14", "address": "Dorset Street Lower"}, "8220DB000015": {"id": "46294", "routes": ["1", "103", "109x", "11", "111x", "13", "16", "33", "33e", "33n", "40", "40b", "40d", "41", "41b", "41c", "41d", "41n", "44", "900", "901", "904", "910", "nx"], "operator": "Dublin Bus", "latitude": 53.36008858, "longitude": -6.26109047, "stopno": "15", "address": "Innisfallen Parade"}, "8220DB000017": {"id": "25218", "routes": ["1", "11", "13", "16", "33", "33e", "33n", "41", "41b", "41c", "41d", "41n", "44", "700", "900", "901", "904", "910"], "operator": "Dublin Bus", "latitude": 53.36291707, "longitude": -6.258435917, "stopno": "17", "address": "Drumcondra Rail Stn"}, "8220DB000018": {"id": "29196", "routes": ["1", "11", "13", "16", "33", "33e", "41", "41b", "41c", "41d", "44"], "operator": "Dublin Bus", "latitude": 53.36585593, "longitude": -6.255956821, "stopno": "18", "address": "Dargle Road"}, "8220DB000019": {"id": "52395", "routes": ["1", "11", "13", "16", "33", "33e", "33n", "41", "41b", "41c", "41d", "41n", "44"], "operator": "Dublin Bus", "latitude": 53.36723488, "longitude": -6.255599941, "stopno": "19", "address": "Botanic Avenue"}, "8220DB000021": {"id": "16260", "routes": ["1", "11", "13", "16", "33", "33e", "33n", "41", "41b", "41c", "41d", "41n", "44", "740", "740-a", "900", "901", "904", "910"], "operator": "Dublin Bus", "latitude": 53.3701012, "longitude": -6.254310599, "stopno": "21", "address": "DCU St Patrick's"}, "8220DB07602": {"id": "39403", "routes": ["1", "11", "13", "16", "180", "33", "33e", "41", "41b", "41c", "41d", "44"], "operator": "Dublin Bus", "latitude": 53.37171235, "longitude": -6.25323777, "stopno": "7602", "address": "DCU St Patrick\u2019s"}, "8220DB000022": {"id": "41366", "routes": [""], "operator": "Dublin Bus", "latitude": 53.37350361, "longitude": -6.252803753, "stopno": "22", "address": "Home Farm Road"}, "8220DB000023": {"id": "37625", "routes": [""], "operator": "Dublin Bus", "latitude": 53.37422828, "longitude": -6.256261004, "stopno": "23", "address": "Ferguson Road"}, "8220DB000024": {"id": "3912", "routes": [""], "operator": "Dublin Bus", "latitude": 53.37513316, "longitude": -6.260372348, "stopno": "24", "address": "Walsh Road"}, "8220DB000025": {"id": "59735", "routes": [""], "operator": "Dublin Bus", "latitude": 53.37589947, "longitude": -6.263617736, "stopno": "25", "address": "Rathlin Road"}, "8220DB000027": {"id": "14138", "routes": ["11", "13", "155", "4", "70d", "9"], "operator": "Dublin Bus", "latitude": 53.37943896, "longitude": -6.266585261, "stopno": "27", "address": "Ballymun Road"}, "8220DB000028": {"id": "63226", "routes": ["11", "13", "155", "4", "70d", "9"], "operator": "Dublin Bus", "latitude": 53.38157864, "longitude": -6.266002271, "stopno": "28", "address": "Hampstead Avenue"}, "8220DB000029": {"id": "40595", "routes": ["11", "13", "155", "4", "70d", "9"], "operator": "Dublin Bus", "latitude": 53.38348825, "longitude": -6.265669101, "stopno": "29", "address": "Albert College Park"}, "8220DB004680": {"id": "36307", "routes": ["11", "13", "155", "4", "70d", "9"], "operator": "Dublin Bus", "latitude": 53.38496648, "longitude": -6.265338406, "stopno": "4680", "address": "DCU"}, "8220DB000031": {"id": "23237", "routes": [""], "operator": "Dublin Bus", "latitude": 53.38603323, "longitude": -6.268858077, "stopno": "31", "address": "St Pappin's Road"}, "8220DB000032": {"id": "8486", "routes": [""], "operator": "Dublin Bus", "latitude": 53.38619557, "longitude": -6.271377201, "stopno": "32", "address": "Stormanstown Road"}, "8220DB000033": {"id": "29218", "routes": [""], "operator": "Dublin Bus", "latitude": 53.38871792, "longitude": -6.271771141, "stopno": "33", "address": "Glasnevin Drive"}, "8220DB007270": {"id": "20454", "routes": [""], "operator": "Dublin Bus", "latitude": 53.38887766, "longitude": -6.275358019, "stopno": "7220", "address": "Ballyknockan Road"}, "8220DB007615": {"id": "61275", "routes": ["1", "11", "16c"], "operator": "Dublin Bus", "latitude": 53.35250814, "longitude": -6.263937829, "stopno": "7615", "address": "Granby Place"}, "8220DB000485": {"id": "40228", "routes": ["120", "27x", "4", "7", "703", "7a", "7d"], "operator": "Dublin Bus", "latitude": 53.32825151, "longitude": -6.228634971, "stopno": "485", "address": "RDS Ballsbridge"}, "8220DB000487": {"id": "27042", "routes": ["120", "18", "194-a", "4", "7", "702", "703", "7a", "7d"], "operator": "Go-Ahead", "latitude": 53.33085529, "longitude": -6.233902308, "stopno": "487", "address": "American Embassy"}, "8220DB000488": {"id": "57295", "routes": ["120", "27x", "4", "7", "7a", "7d"], "operator": "Dublin Bus", "latitude": 53.33309855, "longitude": -6.236076947, "stopno": "488", "address": "Lansdowne Park"}, "8220DB000489": {"id": "41214", "routes": ["120", "4", "7", "7a", "7d"], "operator": "Dublin Bus", "latitude": 53.334942, "longitude": -6.237352313, "stopno": "489", "address": "St Mary's Rd South"}, "8220DB000490": {"id": "57202", "routes": ["120", "4", "7", "702", "703", "7a", "7d"], "operator": "Dublin Bus", "latitude": 53.33657384, "longitude": -6.238906806, "stopno": "490", "address": "Haddington Road"}, "8220DB000491": {"id": "14415", "routes": ["120", "194-a", "27x", "4", "7", "7a", "7d"], "operator": "Dublin Bus", "latitude": 53.33781405, "longitude": -6.241333511, "stopno": "491", "address": "Mount Street Bridge"}, "8220DB000492": {"id": "43783", "routes": ["120", "4", "7", "7a", "7d"], "operator": "Dublin Bus", "latitude": 53.33858469, "longitude": -6.243614462, "stopno": "492", "address": "Mount Street Lower"}, "8220DB000493": {"id": "5872", "routes": ["120", "194-a", "25", "25a", "25b", "25d", "26", "27x", "4", "66", "66a", "66b", "66e", "67", "7", "7a", "7d"], "operator": "Dublin Bus", "latitude": 53.33985342, "longitude": -6.247376823, "stopno": "493", "address": "Holles Street"}, "8220DB000494": {"id": "46704", "routes": ["120", "25", "25a", "25b", "25d", "26", "27x", "4", "66", "66a", "66b", "66e", "67", "7", "740", "740-a", "757", "7a", "7d"], "operator": "Dublin Bus", "latitude": 53.34143558, "longitude": -6.251682252, "stopno": "494", "address": "Clare Street"}, "8220DB000495": {"id": "66629", "routes": ["120", "193", "194", "194-a", "25", "25a", "25b", "25d", "26", "27x", "4", "44", "61", "66", "66a", "66b", "66e", "67", "7", "757", "7a", "7d", "904", "910"], "operator": "Dublin Bus", "latitude": 53.34359132, "longitude": -6.249746705, "stopno": "495", "address": "Pearse Station"}, "8220DB000400": {"id": "57210", "routes": ["1", "120", "15a", "15b", "15d", "25", "25a", "25b", "25d", "26", "27", "4", "44", "47", "56a", "61", "66", "66a", "66b", "66e", "67", "7", "77a", "7a", "824"], "operator": "Dublin Bus", "latitude": 53.34484648, "longitude": -6.253209847, "stopno": "400", "address": "Shaw Street"}, "8220DB000279": {"id": "5753", "routes": ["120", "122", "40", "836", "870"], "operator": "Dublin Bus", "latitude": 53.35013175, "longitude": -6.260609547, "stopno": "279", "address": "O'Connell St Upper"}, "8220DB000003": {"id": "37827", "routes": ["120", "122", "836", "870"], "operator": "Dublin Bus", "latitude": 53.35230855, "longitude": -6.263810742, "stopno": "3", "address": "Parnell Square West"}, "8220DB000192": {"id": "37332", "routes": ["120", "38", "38a", "38b", "38d", "40", "46a", "836", "870"], "operator": "Dublin Bus", "latitude": 53.35639721, "longitude": -6.26807647, "stopno": "192", "address": "Mountjoy Street"}, "8220DB000795": {"id": "58624", "routes": ["120", "38", "38a", "38b", "38d", "46a"], "operator": "Dublin Bus", "latitude": 53.35874004, "longitude": -6.269724278, "stopno": "795", "address": "Berkeley Road"}, "8220DB000796": {"id": "31063", "routes": ["120", "180", "38", "38a", "38b", "38d", "46a"], "operator": "Dublin Bus", "latitude": 53.36001821, "longitude": -6.269852786, "stopno": "796", "address": "Berkeley Road"}, "8220DB000056": {"id": "42678", "routes": ["120", "122", "836", "870"], "operator": "Dublin Bus", "latitude": 53.36075972, "longitude": -6.276373655, "stopno": "56", "address": "Dalymount"}, "8220DB000058": {"id": "24682", "routes": ["120", "122", "38", "38a", "38b", "38d", "39n"], "operator": "Dublin Bus", "latitude": 53.36094625, "longitude": -6.281204202, "stopno": "58", "address": "Churchview Home"}, "8220DB004499": {"id": "50720", "routes": ["2"], "operator": "Dublin Bus", "latitude": 53.36156851, "longitude": -6.283222595, "stopno": "4499", "address": "Dowth Avenue"}, "8220DB004934": {"id": "55446", "routes": ["2"], "operator": "Dublin Bus", "latitude": 53.36285751, "longitude": -6.282855228, "stopno": "4934", "address": "Offaly Road"}, "8220DB004500": {"id": "45747", "routes": ["2"], "operator": "Dublin Bus", "latitude": 53.36404744, "longitude": -6.283723969, "stopno": "4500", "address": "Faussagh Road"}, "8220DB004481": {"id": "29065", "routes": ["2"], "operator": "Dublin Bus", "latitude": 53.36461441, "longitude": -6.286901793, "stopno": "4481", "address": "Cabra PO"}, "8220DB004485": {"id": "3649", "routes": ["2"], "operator": "Dublin Bus", "latitude": 53.36554163, "longitude": -6.289509284, "stopno": "4485", "address": "Naomh Fionnbarra GAA"}, "8220DB000822": {"id": "35003", "routes": ["2"], "operator": "Dublin Bus", "latitude": 53.36712068, "longitude": -6.291820321, "stopno": "822", "address": "Mulroy Road"}, "8220DB000823": {"id": "34111", "routes": ["2"], "operator": "Dublin Bus", "latitude": 53.36823515, "longitude": -6.291189651, "stopno": "823", "address": "Kilkieran Road"}, "8220DB000824": {"id": "13138", "routes": ["2"], "operator": "Dublin Bus", "latitude": 53.36974785, "longitude": -6.293263095, "stopno": "824", "address": "Bannow Road"}, "8220DB000825": {"id": "67966", "routes": ["2"], "operator": "Dublin Bus", "latitude": 53.37042944, "longitude": -6.296932826, "stopno": "825", "address": "St Finbar's Road"}, "8220DB000826": {"id": "9529", "routes": ["120", "40e"], "operator": "Dublin Bus", "latitude": 53.37121785, "longitude": -6.301169508, "stopno": "826", "address": "Carnlough Road"}, "8220DB000827": {"id": "47865", "routes": ["120", "40e"], "operator": "Dublin Bus", "latitude": 53.37130615, "longitude": -6.30358561, "stopno": "827", "address": "Ventry Park"}, "8220DB000071": {"id": "44366", "routes": ["120", "40e"], "operator": "Dublin Bus", "latitude": 53.37025769, "longitude": -6.304438805, "stopno": "71", "address": "Ventry Park"}, "8220DB000072": {"id": "5321", "routes": ["120", "40e"], "operator": "Dublin Bus", "latitude": 53.36896993, "longitude": -6.304264536, "stopno": "72", "address": "Ventry Drive"}, "8220DB005144": {"id": "64509", "routes": ["120", "40e", "70d"], "operator": "Dublin Bus", "latitude": 53.37270953, "longitude": -6.306205026, "stopno": "5144", "address": "Marian School"}, "8220DB007027": {"id": "39550", "routes": ["2"], "operator": "Dublin Bus", "latitude": 53.37659424, "longitude": -6.312048033, "stopno": "7027", "address": "Glasnevin Park"}, "8220DB004538": {"id": "23212", "routes": ["2"], "operator": "Dublin Bus", "latitude": 53.37572811, "longitude": -6.316906985, "stopno": "4538", "address": "Royal Canal Avenue"}, "8220DB007396": {"id": "59017", "routes": ["2"], "operator": "Dublin Bus", "latitude": 53.37610894, "longitude": -6.32161149, "stopno": "7396", "address": "Crescent Park"}, "8220DB005145": {"id": "15891", "routes": ["2"], "operator": "Dublin Bus", "latitude": 53.3771968, "longitude": -6.3267543, "stopno": "5145", "address": "Rathbourne Avenue"}, "8220DB000276": {"id": "55501", "routes": ["2"], "operator": "Dublin Bus", "latitude": 53.3774022, "longitude": -6.331796583, "stopno": "276", "address": "River Road"}, "8220DB000284": {"id": "63587", "routes": ["2"], "operator": "Dublin Bus", "latitude": 53.37728262, "longitude": -6.328389284, "stopno": "284", "address": "Rathbourne Avenue"}, "8220DB004504": {"id": "29557", "routes": ["2"], "operator": "Dublin Bus", "latitude": 53.37582324, "longitude": -6.317278989, "stopno": "4504", "address": "Royal Canal Avenue"}, "8220DB007028": {"id": "781", "routes": ["2"], "operator": "Dublin Bus", "latitude": 53.37651585, "longitude": -6.310953907, "stopno": "7028", "address": "Royal Canal Centre"}, "8220DB005147": {"id": "43902", "routes": ["120", "40e", "70d"], "operator": "Dublin Bus", "latitude": 53.37182345, "longitude": -6.305834409, "stopno": "5147", "address": "Marian College"}, "8220DB000068": {"id": "63172", "routes": ["120", "40e"], "operator": "Dublin Bus", "latitude": 53.36907751, "longitude": -6.304245235, "stopno": "68", "address": "Ventry Drive"}, "8220DB000030": {"id": "68050", "routes": ["120", "40e"], "operator": "Dublin Bus", "latitude": 53.3703319, "longitude": -6.304601169, "stopno": "30", "address": "Ventry Park"}, "8220DB000069": {"id": "29755", "routes": ["120", "40e"], "operator": "Dublin Bus", "latitude": 53.37139256, "longitude": -6.303341717, "stopno": "69", "address": "Carnlough Road"}, "8220DB000828": {"id": "64446", "routes": ["2"], "operator": "Dublin Bus", "latitude": 53.37104482, "longitude": -6.299748678, "stopno": "828", "address": "Broombridge Station"}, "8220DB000829": {"id": "12605", "routes": ["2"], "operator": "Dublin Bus", "latitude": 53.37039689, "longitude": -6.295912195, "stopno": "829", "address": "St Finbar's Road"}, "8220DB000830": {"id": "6117", "routes": ["2"], "operator": "Dublin Bus", "latitude": 53.36962437, "longitude": -6.29217098, "stopno": "830", "address": "Bannow Road"}, "8220DB000831": {"id": "34094", "routes": ["2"], "operator": "Dublin Bus", "latitude": 53.36766197, "longitude": -6.291332813, "stopno": "831", "address": "Mulroy Road"}, "8220DB000075": {"id": "35159", "routes": ["2"], "operator": "Dublin Bus", "latitude": 53.36654723, "longitude": -6.291317319, "stopno": "75", "address": "Fionnbarra GAA"}, "8220DB004501": {"id": "3381", "routes": ["2"], "operator": "Dublin Bus", "latitude": 53.36475239, "longitude": -6.287121652, "stopno": "4501", "address": "Faussagh Road"}, "8220DB004935": {"id": "39472", "routes": ["2"], "operator": "Dublin Bus", "latitude": 53.36409572, "longitude": -6.283331347, "stopno": "4935", "address": "St Attracta Road"}, "8220DB004502": {"id": "57368", "routes": ["2"], "operator": "Dublin Bus", "latitude": 53.36333956, "longitude": -6.282625479, "stopno": "4502", "address": "Cabra PO"}, "8220DB004936": {"id": "54237", "routes": ["2"], "operator": "Dublin Bus", "latitude": 53.36135206, "longitude": -6.283171196, "stopno": "4936", "address": "Newgrange Road"}, "8220DB000079": {"id": "43044", "routes": ["120", "122", "38", "38a", "38b", "38d"], "operator": "Dublin Bus", "latitude": 53.36102125, "longitude": -6.280795506, "stopno": "79", "address": "Churchview Home"}, "8220DB000080": {"id": "24845", "routes": ["120", "122", "38", "38a", "38b", "38d"], "operator": "Dublin Bus", "latitude": 53.36086296, "longitude": -6.276053962, "stopno": "80", "address": "Phibsborough PO"}, "8220DB000082": {"id": "44856", "routes": ["120", "122", "38", "38a", "38b", "38d"], "operator": "Dublin Bus", "latitude": 53.3607978, "longitude": -6.27154908, "stopno": "82", "address": "Phibsborough"}, "8220DB000817": {"id": "58892", "routes": ["120", "179", "38", "38a", "38b", "38d", "46a"], "operator": "Dublin Bus", "latitude": 53.35964622, "longitude": -6.269612438, "stopno": "817", "address": "Mater Hospital"}, "8220DB000818": {"id": "50684", "routes": ["120", "38", "38a", "38b", "38d", "46a"], "operator": "Dublin Bus", "latitude": 53.35848112, "longitude": -6.269223945, "stopno": "818", "address": "O'Connell Avenue"}, "8220DB000819": {"id": "64904", "routes": ["120", "140", "155", "38", "38a", "38b", "38d", "4", "40", "46a", "9"], "operator": "Dublin Bus", "latitude": 53.35630402, "longitude": -6.265991986, "stopno": "819", "address": "Blessington Street"}, "8220DB000263": {"id": "2366", "routes": ["120", "122", "747", "9"], "operator": "Dublin Bus", "latitude": 53.35374562, "longitude": -6.262505454, "stopno": "263", "address": "Parnell Square East"}, "8220DB004725": {"id": "9053", "routes": ["120", "4", "40b", "40d", "7", "7a", "7d"], "operator": "Dublin Bus", "latitude": 53.35211562, "longitude": -6.261054534, "stopno": "4725", "address": "O'Connell St Upper"}, "8220DB004495": {"id": "22473", "routes": ["120", "142", "15", "150", "151", "25x", "27", "27x", "32x", "33x", "39x", "41x", "51d", "51x", "66x", "67x", "68", "68a", "69", "69x", "757", "84x"], "operator": "Dublin Bus", "latitude": 53.34618678, "longitude": -6.256970115, "stopno": "4495", "address": "Hawkins Street"}, "8220DB002809": {"id": "20052", "routes": ["120", "126e", "126u", "126x", "130", "142", "193", "194", "194-x", "25x", "27x", "32x", "33x", "39x", "41x", "44", "51d", "51x", "61", "66x", "67x", "757", "77x", "904", "910"], "operator": "Go-Ahead", "latitude": 53.34303571, "longitude": -6.249859577, "stopno": "2809", "address": "Pearse Station"}, "8220DB000408": {"id": "42771", "routes": ["120", "27x", "4", "7", "7a"], "operator": "Dublin Bus", "latitude": 53.34097078, "longitude": -6.25001924, "stopno": "408", "address": "Merrion Sq North"}, "8220DB000409": {"id": "10549", "routes": ["120", "27x", "4", "7", "7a", "7n", "847"], "operator": "Dublin Bus", "latitude": 53.34013673, "longitude": -6.247695596, "stopno": "409", "address": "Holles Street"}, "8220DB000410": {"id": "50934", "routes": ["120", "4", "7", "7a", "7n"], "operator": "Dublin Bus", "latitude": 53.33881345, "longitude": -6.24389039, "stopno": "410", "address": "Mount Street Lower"}, "8220DB000411": {"id": "28696", "routes": ["120", "27x", "4", "7", "7a", "7n"], "operator": "Dublin Bus", "latitude": 53.33811712, "longitude": -6.241771554, "stopno": "411", "address": "Mount Street Bridge"}, "8220DB000412": {"id": "36415", "routes": ["120", "4", "7", "7a", "7n"], "operator": "Dublin Bus", "latitude": 53.33525551, "longitude": -6.237279319, "stopno": "412", "address": "Haddington Road"}, "8220DB000413": {"id": "9830", "routes": ["120", "4", "7", "7a", "7n"], "operator": "Dublin Bus", "latitude": 53.33409419, "longitude": -6.236546394, "stopno": "413", "address": "Lansdowne Park"}, "8220DB000414": {"id": "723", "routes": ["120", "18", "27x", "4", "7", "702", "703", "7a", "7n"], "operator": "Go-Ahead", "latitude": 53.33157381, "longitude": -6.234473217, "stopno": "414", "address": "Lansdowne Road"}, "8220DB000415": {"id": "12526", "routes": ["120", "18", "193", "194-a", "4", "7", "7a", "7n", "824"], "operator": "Go-Ahead", "latitude": 53.33033782, "longitude": -6.23294775, "stopno": "415", "address": "American Embassy"}, "8220DB006004": {"id": "7872", "routes": ["120", "40b", "40d"], "operator": "Dublin Bus", "latitude": 53.35280357, "longitude": -6.260771148, "stopno": "6004", "address": "Parnell Street"}, "8220DB006071": {"id": "47632", "routes": ["120", "40b", "40d"], "operator": "Dublin Bus", "latitude": 53.35309059, "longitude": -6.2601135, "stopno": "6071", "address": "Parnell Street"}, "8220DB004525": {"id": "31910", "routes": ["2"], "operator": "Dublin Bus", "latitude": 53.37344814, "longitude": -6.311390924, "stopno": "4525", "address": "Ashington Park"}, "8220DB004526": {"id": "51572", "routes": ["2"], "operator": "Dublin Bus", "latitude": 53.37211889, "longitude": -6.315275889, "stopno": "4526", "address": "Ashington Avenue"}, "8220DB001700": {"id": "42611", "routes": ["122", "37", "38", "38a", "38b", "38d", "39", "39a", "39x", "70", "70d"], "operator": "Dublin Bus", "latitude": 53.36770883, "longitude": -6.317403485, "stopno": "1700", "address": "Baggot Road"}, "8220DB001701": {"id": "12675", "routes": ["122", "37", "38", "38a", "38b", "38d", "39", "39a", "70", "70d"], "operator": "Dublin Bus", "latitude": 53.36656726, "longitude": -6.312940383, "stopno": "1701", "address": "Our Lady's Church"}, "8220DB001702": {"id": "63221", "routes": ["122", "37", "38", "38a", "38b", "38d", "39", "39a", "70", "70d"], "operator": "Dublin Bus", "latitude": 53.36561083, "longitude": -6.310138139, "stopno": "1702", "address": "Navan Road Church"}, "8220DB000016": {"id": "57701", "routes": ["122", "70d"], "operator": "Dublin Bus", "latitude": 53.36639156, "longitude": -6.305614184, "stopno": "16", "address": "Nephin Road Park"}, "8220DB000073": {"id": "39662", "routes": ["2"], "operator": "Dublin Bus", "latitude": 53.36739155, "longitude": -6.300720679, "stopno": "73", "address": "Faussagh Avenue"}, "8220DB000074": {"id": "2516", "routes": ["2"], "operator": "Dublin Bus", "latitude": 53.36720024, "longitude": -6.295498814, "stopno": "74", "address": "Faussaugh Ave Church"}, "8220DB004371": {"id": "2644", "routes": ["2"], "operator": "Dublin Bus", "latitude": 53.36592857, "longitude": -6.292679465, "stopno": "4371", "address": "Drumcliffe Drive"}, "8220DB000832": {"id": "10264", "routes": ["2"], "operator": "Dublin Bus", "latitude": 53.36362945, "longitude": -6.294063635, "stopno": "832", "address": "Drumcliffe Road"}, "8220DB000833": {"id": "30341", "routes": ["2"], "operator": "Dublin Bus", "latitude": 53.36177615, "longitude": -6.293311284, "stopno": "833", "address": "Swilly Road"}, "8220DB000077": {"id": "61617", "routes": ["122", "38", "38a", "38b", "38d"], "operator": "Dublin Bus", "latitude": 53.36130918, "longitude": -6.289573652, "stopno": "77", "address": "Quarry Road"}, "8220DB000078": {"id": "6211", "routes": ["122", "38", "38a", "38b", "38d"], "operator": "Dublin Bus", "latitude": 53.36114922, "longitude": -6.284065835, "stopno": "78", "address": "Annamoe Terrace"}, "8220DB000083": {"id": "55258", "routes": ["2"], "operator": "Dublin Bus", "latitude": 53.36027925, "longitude": -6.265545096, "stopno": "83", "address": "Mater Hospital"}, "8220DB000084": {"id": "7421", "routes": ["2"], "operator": "Dublin Bus", "latitude": 53.36016256, "longitude": -6.263701781, "stopno": "84", "address": "Leo Street"}, "8220DB001278": {"id": "58652", "routes": ["122", "123", "68", "68a", "9"], "operator": "Dublin Bus", "latitude": 53.34423662, "longitude": -6.261300118, "stopno": "1278", "address": "College Green"}, "8220DB001282": {"id": "38142", "routes": ["122", "16", "16d", "68", "68a", "9"], "operator": "Dublin Bus", "latitude": 53.3423418, "longitude": -6.264501083, "stopno": "1282", "address": "S Great George's St"}, "8220DB004456": {"id": "5115", "routes": ["122", "16", "16d", "49n", "65", "65b", "68", "68a", "83", "83a", "9"], "operator": "Dublin Bus", "latitude": 53.3399144, "longitude": -6.265695957, "stopno": "4456", "address": "Whitefriars St"}, "8220DB001284": {"id": "47054", "routes": ["122", "16", "16d", "49n", "65", "65b", "68", "68a", "83", "83a", "9"], "operator": "Dublin Bus", "latitude": 53.33812835, "longitude": -6.265873557, "stopno": "1284", "address": "Redmond's Hill"}, "8220DB001285": {"id": "1964", "routes": ["122", "14", "140", "15", "15a", "15b", "15d", "16", "16d", "49n", "65", "65b", "68", "68a", "83", "83a", "9"], "operator": "Dublin Bus", "latitude": 53.33437841, "longitude": -6.265124754, "stopno": "1285", "address": "Camden Street Lower"}, "8220DB001286": {"id": "18899", "routes": ["122", "125", "68", "68a", "9"], "operator": "Go-Ahead", "latitude": 53.33249965, "longitude": -6.265726535, "stopno": "1286", "address": "Harrington Street"}, "8220DB001288": {"id": "15887", "routes": ["122", "16", "16d", "68", "68a", "9"], "operator": "Dublin Bus", "latitude": 53.33232275, "longitude": -6.269637622, "stopno": "1288", "address": "Victoria Street"}, "8220DB001289": {"id": "17139", "routes": ["122", "16", "16d", "68", "68a", "9"], "operator": "Dublin Bus", "latitude": 53.33212936, "longitude": -6.273038833, "stopno": "1289", "address": "Longwood Avenue"}, "8220DB001360": {"id": "33623", "routes": ["122", "68", "68a"], "operator": "Dublin Bus", "latitude": 53.33198339, "longitude": -6.276618278, "stopno": "1360", "address": "Raymond Street"}, "8220DB001362": {"id": "42565", "routes": ["122", "68", "68a"], "operator": "Dublin Bus", "latitude": 53.33120396, "longitude": -6.279907874, "stopno": "1362", "address": "National Stadium"}, "8220DB001363": {"id": "53973", "routes": ["122", "68", "68a"], "operator": "Dublin Bus", "latitude": 53.33184593, "longitude": -6.285167265, "stopno": "1363", "address": "St Anne's Road S"}, "8220DB001365": {"id": "20880", "routes": ["122", "68", "68a"], "operator": "Dublin Bus", "latitude": 53.33290153, "longitude": -6.290455313, "stopno": "1365", "address": "Dolphins Barn Church"}, "8220DB001366": {"id": "18567", "routes": ["122", "17", "17d", "68", "68a"], "operator": "Go-Ahead", "latitude": 53.33514987, "longitude": -6.294314591, "stopno": "1366", "address": "St Andrews Centre"}, "8220DB001367": {"id": "17955", "routes": ["122", "17", "17d", "68", "68a"], "operator": "Go-Ahead", "latitude": 53.33568529, "longitude": -6.296560663, "stopno": "1367", "address": "Rialto Church"}, "8220DB007455": {"id": "49117", "routes": ["2"], "operator": "Dublin Bus", "latitude": 53.33557454, "longitude": -6.298877559, "stopno": "7455", "address": "Herberton Road"}, "8220DB007438": {"id": "41036", "routes": ["2"], "operator": "Dublin Bus", "latitude": 53.33193621, "longitude": -6.297746089, "stopno": "7438", "address": "Herberton Drive"}, "8220DB001410": {"id": "47618", "routes": ["2"], "operator": "Dublin Bus", "latitude": 53.33141692, "longitude": -6.299778731, "stopno": "1410", "address": "Keeper Road"}, "8220DB001411": {"id": "64832", "routes": ["2"], "operator": "Dublin Bus", "latitude": 53.33205103, "longitude": -6.303282004, "stopno": "1411", "address": "Brickfield Drive"}, "8220DB001412": {"id": "41846", "routes": ["2"], "operator": "Dublin Bus", "latitude": 53.33268165, "longitude": -6.305914643, "stopno": "1412", "address": "Slievenamon Road"}, "8220DB001413": {"id": "34674", "routes": ["2"], "operator": "Dublin Bus", "latitude": 53.33344139, "longitude": -6.308782494, "stopno": "1413", "address": "Brickfields Park"}, "8220DB001414": {"id": "28314", "routes": ["2"], "operator": "Dublin Bus", "latitude": 53.33334761, "longitude": -6.312314801, "stopno": "1414", "address": "Benbulbin Road"}, "8220DB001415": {"id": "41302", "routes": ["2"], "operator": "Dublin Bus", "latitude": 53.33244325, "longitude": -6.316374521, "stopno": "1415", "address": "Sperrin Road"}, "8220DB001417": {"id": "16452", "routes": ["2"], "operator": "Dublin Bus", "latitude": 53.33103221, "longitude": -6.319568119, "stopno": "1417", "address": "Lady Of Mercy School"}, "8220DB001418": {"id": "33793", "routes": ["2"], "operator": "Dublin Bus", "latitude": 53.33002976, "longitude": -6.32306077, "stopno": "1418", "address": "Cooley Road"}, "8220DB005149": {"id": "44298", "routes": ["122", "123"], "operator": "Dublin Bus", "latitude": 53.32908662, "longitude": -6.323743357, "stopno": "5149", "address": "Errigal Road"}, "8220DB001419": {"id": "8841", "routes": ["122", "123"], "operator": "Dublin Bus", "latitude": 53.32771773, "longitude": -6.322911243, "stopno": "1419", "address": "Brandon Road"}, "8220DB006094": {"id": "58397", "routes": ["122", "123"], "operator": "Dublin Bus", "latitude": 53.32583025, "longitude": -6.32163414, "stopno": "6094", "address": "Drimnagh PO"}, "8220DB001423": {"id": "30734", "routes": ["122", "123"], "operator": "Dublin Bus", "latitude": 53.32499949, "longitude": -6.319444922, "stopno": "1423", "address": "Crumlin Hospital"}, "8220DB001424": {"id": "52601", "routes": ["122", "123", "125", "151", "27", "56a", "77a", "77x"], "operator": "Go-Ahead", "latitude": 53.32566251, "longitude": -6.316746622, "stopno": "1424", "address": "Crumlin Hospital"}, "8220DB001425": {"id": "15545", "routes": ["122", "123"], "operator": "Dublin Bus", "latitude": 53.32701317, "longitude": -6.318194754, "stopno": "1425", "address": "Cooley Road"}, "8220DB001426": {"id": "1237", "routes": ["122", "123"], "operator": "Dublin Bus", "latitude": 53.32927488, "longitude": -6.322429771, "stopno": "1426", "address": "Curlew Road"}, "8220DB001427": {"id": "21292", "routes": ["2"], "operator": "Dublin Bus", "latitude": 53.33027116, "longitude": -6.322330619, "stopno": "1427", "address": "Mourne Road"}, "8220DB001428": {"id": "30426", "routes": ["2"], "operator": "Dublin Bus", "latitude": 53.33135888, "longitude": -6.319149884, "stopno": "1428", "address": "Lady of Mercy School"}, "8220DB001429": {"id": "36603", "routes": ["2"], "operator": "Dublin Bus", "latitude": 53.33259321, "longitude": -6.316173419, "stopno": "1429", "address": "Sperrin Road"}, "8220DB001430": {"id": "49295", "routes": ["2"], "operator": "Dublin Bus", "latitude": 53.3335738, "longitude": -6.311149686, "stopno": "1430", "address": "Belbulbin Road"}, "8220DB001432": {"id": "37223", "routes": ["2"], "operator": "Dublin Bus", "latitude": 53.33349874, "longitude": -6.308389826, "stopno": "1432", "address": "Brickfields Park"}, "8220DB001433": {"id": "3968", "routes": ["2"], "operator": "Dublin Bus", "latitude": 53.33257215, "longitude": -6.305798862, "stopno": "1433", "address": "Slievenamon Road"}, "8220DB001434": {"id": "22976", "routes": ["2"], "operator": "Dublin Bus", "latitude": 53.33199245, "longitude": -6.302323379, "stopno": "1434", "address": "Keeper Road"}, "8220DB001435": {"id": "28779", "routes": ["2"], "operator": "Dublin Bus", "latitude": 53.33138805, "longitude": -6.299014132, "stopno": "1435", "address": "Keeper Road"}, "8220DB007439": {"id": "42280", "routes": ["2"], "operator": "Dublin Bus", "latitude": 53.33236226, "longitude": -6.297999392, "stopno": "7439", "address": "Herberton Road"}, "8220DB007454": {"id": "22068", "routes": ["2"], "operator": "Dublin Bus", "latitude": 53.33500797, "longitude": -6.298855061, "stopno": "7454", "address": "New Ireland Road"}, "8220DB001380": {"id": "21202", "routes": ["122", "17", "17d", "68", "68a"], "operator": "Go-Ahead", "latitude": 53.335641, "longitude": -6.295976799, "stopno": "1380", "address": "Rialto Church"}, "8220DB001381": {"id": "15723", "routes": ["122", "17", "17d", "68", "68a"], "operator": "Go-Ahead", "latitude": 53.33512375, "longitude": -6.293745026, "stopno": "1381", "address": "St Andrews Centre"}, "8220DB001382": {"id": "6757", "routes": ["122", "125", "68", "68a"], "operator": "Go-Ahead", "latitude": 53.33317317, "longitude": -6.290594602, "stopno": "1382", "address": "Dolphins Barn Church"}, "8220DB001383": {"id": "65243", "routes": ["122", "68", "68a"], "operator": "Dublin Bus", "latitude": 53.33227108, "longitude": -6.286606663, "stopno": "1383", "address": "Dolphin Avenue"}, "8220DB001384": {"id": "20540", "routes": ["122", "68", "68a"], "operator": "Dublin Bus", "latitude": 53.3313562, "longitude": -6.282364154, "stopno": "1384", "address": "Dufferin Avenue"}, "8220DB001385": {"id": "48394", "routes": ["122", "68", "68a"], "operator": "Dublin Bus", "latitude": 53.3318004, "longitude": -6.278262272, "stopno": "1385", "address": "Griffith College"}, "8220DB001348": {"id": "10343", "routes": ["122", "16", "16c", "68", "68a", "9"], "operator": "Dublin Bus", "latitude": 53.33224954, "longitude": -6.273889833, "stopno": "1348", "address": "Spencer St South"}, "8220DB001349": {"id": "49967", "routes": ["122", "16", "16c", "68", "68a", "9"], "operator": "Dublin Bus", "latitude": 53.33238573, "longitude": -6.270881323, "stopno": "1349", "address": "Carlisle Street"}, "8220DB001350": {"id": "9520", "routes": ["122", "125", "16", "16c", "68", "68a", "9"], "operator": "Go-Ahead", "latitude": 53.33256109, "longitude": -6.267480812, "stopno": "1350", "address": "Harrington Street"}, "8220DB001352": {"id": "56154", "routes": ["122", "16", "16c", "65", "65b", "68", "68a", "83", "83a", "9"], "operator": "Dublin Bus", "latitude": 53.33444543, "longitude": -6.265407334, "stopno": "1352", "address": "Camden Street Lower"}, "8220DB001353": {"id": "57129", "routes": ["122", "14", "140", "142", "14c", "15", "15a", "15b", "15d", "16", "16c", "65", "65b", "68", "68a", "83", "83a", "9"], "operator": "Dublin Bus", "latitude": 53.33600953, "longitude": -6.265418938, "stopno": "1353", "address": "Pleasants Street"}, "8220DB001355": {"id": "9545", "routes": ["122", "16", "16c", "65", "65b", "68", "68a", "83", "83a", "9"], "operator": "Dublin Bus", "latitude": 53.34009624, "longitude": -6.265838755, "stopno": "1355", "address": "Whitefriars Street"}, "8220DB001357": {"id": "26299", "routes": ["122", "16", "16c", "65", "65b", "68", "68a", "83", "83a", "9"], "operator": "Dublin Bus", "latitude": 53.34256789, "longitude": -6.26459703, "stopno": "1357", "address": "Exchequer Street"}, "8220DB001359": {"id": "28977", "routes": ["122", "123", "13", "16", "16c", "747", "83", "83a", "9"], "operator": "Dublin Bus", "latitude": 53.34439941, "longitude": -6.26136859, "stopno": "1359", "address": "College Green"}, "8220DB000053": {"id": "9940", "routes": ["2"], "operator": "Dublin Bus", "latitude": 53.36001449, "longitude": -6.262791289, "stopno": "53", "address": "North Circular Road"}, "8220DB000054": {"id": "11959", "routes": ["2"], "operator": "Dublin Bus", "latitude": 53.36015371, "longitude": -6.26556522, "stopno": "54", "address": "Mater Hospital"}, "8220DB000055": {"id": "67787", "routes": ["2"], "operator": "Dublin Bus", "latitude": 53.3604116, "longitude": -6.26846958, "stopno": "55", "address": "Mountjoy"}, "8220DB000059": {"id": "67938", "routes": ["122", "38", "38a", "38b", "38d", "39n"], "operator": "Dublin Bus", "latitude": 53.36101801, "longitude": -6.284942563, "stopno": "59", "address": "Annamoe Terrace"}, "8220DB000060": {"id": "49766", "routes": ["122", "38", "38a", "38b", "38d", "39n"], "operator": "Dublin Bus", "latitude": 53.36127922, "longitude": -6.2893645, "stopno": "60", "address": "Quarry Road"}, "8220DB000820": {"id": "38072", "routes": ["2"], "operator": "Dublin Bus", "latitude": 53.3619678, "longitude": -6.29351398, "stopno": "820", "address": "Carnlough Road"}, "8220DB000821": {"id": "37234", "routes": ["2"], "operator": "Dublin Bus", "latitude": 53.3645519, "longitude": -6.293831436, "stopno": "821", "address": "Drumcliffe Road"}, "8220DB000063": {"id": "65733", "routes": ["2"], "operator": "Dublin Bus", "latitude": 53.36679244, "longitude": -6.292750108, "stopno": "63", "address": "Faussaugh Avenue"}, "8220DB000064": {"id": "54829", "routes": ["2"], "operator": "Dublin Bus", "latitude": 53.36708858, "longitude": -6.295232782, "stopno": "64", "address": "Faussaugh Ave Church"}, "8220DB000065": {"id": "62180", "routes": ["2"], "operator": "Dublin Bus", "latitude": 53.36725464, "longitude": -6.298051276, "stopno": "65", "address": "Dingle Road"}, "8220DB000066": {"id": "27608", "routes": ["2"], "operator": "Dublin Bus", "latitude": 53.36727499, "longitude": -6.300740346, "stopno": "66", "address": "Broombridge Road"}, "8220DB004498": {"id": "39083", "routes": ["122", "70d"], "operator": "Dublin Bus", "latitude": 53.36680375, "longitude": -6.304260414, "stopno": "4498", "address": "Nephin Road"}, "8220DB001660": {"id": "5655", "routes": ["122", "37", "38", "38a", "38b", "38d", "39", "39a", "39n", "70", "70d", "70n"], "operator": "Dublin Bus", "latitude": 53.36518655, "longitude": -6.309373553, "stopno": "1660", "address": "Cabra Garda Station"}, "8220DB001661": {"id": "6517", "routes": ["122", "37", "38", "38a", "38b", "38d", "39", "39a", "39n", "70", "70d", "70n"], "operator": "Dublin Bus", "latitude": 53.36644362, "longitude": -6.313095538, "stopno": "1661", "address": "Our Lady's Church"}, "8220DB004523": {"id": "3840", "routes": ["2"], "operator": "Dublin Bus", "latitude": 53.36914632, "longitude": -6.317361855, "stopno": "4523", "address": "Kinvara Avenue"}, "8220DB004524": {"id": "53544", "routes": ["2"], "operator": "Dublin Bus", "latitude": 53.3716761, "longitude": -6.315744228, "stopno": "4524", "address": "Ashington Avenue"}, "8220DB004322": {"id": "36166", "routes": ["2"], "operator": "Dublin Bus", "latitude": 53.37347317, "longitude": -6.311254668, "stopno": "4322", "address": "Ashington Park"}, "8220DB006057": {"id": "31710", "routes": ["2"], "operator": "Dublin Bus", "latitude": 53.32146106, "longitude": -6.331172547, "stopno": "6057", "address": "Kilnamanagh Road"}, "8220DB002183": {"id": "17985", "routes": ["123", "27", "77a"], "operator": "Dublin Bus", "latitude": 53.32170398, "longitude": -6.330547609, "stopno": "2183", "address": "Walkinstown Shop Cen"}, "8220DB002184": {"id": "44253", "routes": ["123", "27", "77a"], "operator": "Dublin Bus", "latitude": 53.32299661, "longitude": -6.329146097, "stopno": "2184", "address": "Drimnagh Road Junc"}, "8220DB002185": {"id": "7657", "routes": ["123", "151", "18", "27", "56a", "77a"], "operator": "Go-Ahead", "latitude": 53.3242587, "longitude": -6.327490489, "stopno": "2185", "address": "Slievebloom Road"}, "8220DB001463": {"id": "54347", "routes": ["2"], "operator": "Dublin Bus", "latitude": 53.33062399, "longitude": -6.323773162, "stopno": "1463", "address": "Galtymore Road"}, "8220DB004399": {"id": "27218", "routes": ["2"], "operator": "Dublin Bus", "latitude": 53.33252678, "longitude": -6.32102588, "stopno": "4399", "address": "Galtymore Park"}, "8220DB004400": {"id": "43765", "routes": ["2"], "operator": "Dublin Bus", "latitude": 53.33437392, "longitude": -6.319436746, "stopno": "4400", "address": "Drimnagh CU"}, "8220DB001464": {"id": "34092", "routes": ["2"], "operator": "Dublin Bus", "latitude": 53.3348988, "longitude": -6.316503037, "stopno": "1464", "address": "Davitt House"}, "8220DB001469": {"id": "4723", "routes": ["2"], "operator": "Dublin Bus", "latitude": 53.33525916, "longitude": -6.313380538, "stopno": "1469", "address": "Benbulbin Road"}, "8220DB001465": {"id": "38752", "routes": ["2"], "operator": "Dublin Bus", "latitude": 53.33479676, "longitude": -6.308653787, "stopno": "1465", "address": "Good Counsel GAA"}, "8220DB001466": {"id": "9173", "routes": ["2"], "operator": "Dublin Bus", "latitude": 53.33452893, "longitude": -6.306246854, "stopno": "1466", "address": "Galtymore Drive"}, "8220DB001467": {"id": "64211", "routes": ["2"], "operator": "Dublin Bus", "latitude": 53.33565738, "longitude": -6.305961878, "stopno": "1467", "address": "Slievenamon Road"}, "8220DB001468": {"id": "49520", "routes": ["2"], "operator": "Dublin Bus", "latitude": 53.3375666, "longitude": -6.307493, "stopno": "1468", "address": "Suir Road Luas"}, "8220DB001377": {"id": "65522", "routes": ["123", "68", "68a"], "operator": "Dublin Bus", "latitude": 53.33916336, "longitude": -6.304741655, "stopno": "1377", "address": "South Circular Road"}, "8220DB001378": {"id": "14652", "routes": ["123", "68", "68a"], "operator": "Dublin Bus", "latitude": 53.33882787, "longitude": -6.301376083, "stopno": "1378", "address": "Mayfield Road"}, "8220DB004514": {"id": "36922", "routes": ["2"], "operator": "Dublin Bus", "latitude": 53.33996399, "longitude": -6.297216087, "stopno": "4514", "address": "St James's Hospital"}, "8220DB004515": {"id": "3588", "routes": ["2"], "operator": "Dublin Bus", "latitude": 53.34070516, "longitude": -6.293732431, "stopno": "4515", "address": "St James's Dental"}, "8220DB001995": {"id": "14292", "routes": ["123", "13", "40", "68x"], "operator": "Dublin Bus", "latitude": 53.34267519, "longitude": -6.293218227, "stopno": "1995", "address": "Basin Street Lower"}, "8220DB001996": {"id": "43158", "routes": ["123", "13", "40"], "operator": "Dublin Bus", "latitude": 53.34356007, "longitude": -6.288481954, "stopno": "1996", "address": "James Street"}, "8220DB001997": {"id": "20159", "routes": ["123", "13", "40"], "operator": "Dublin Bus", "latitude": 53.34357108, "longitude": -6.285492742, "stopno": "1997", "address": "Thomas Street"}, "8220DB001998": {"id": "60304", "routes": ["123", "13", "40", "68x"], "operator": "Dublin Bus", "latitude": 53.34313961, "longitude": -6.280493772, "stopno": "1998", "address": "Bridgefoot Street"}, "8220DB001999": {"id": "29051", "routes": ["123", "13", "40"], "operator": "Dublin Bus", "latitude": 53.34311924, "longitude": -6.276589701, "stopno": "1999", "address": "Francis St Junc"}, "8220DB002001": {"id": "30402", "routes": ["123", "13", "40", "747"], "operator": "Dublin Bus", "latitude": 53.34331047, "longitude": -6.273653305, "stopno": "2001", "address": "High Street"}, "8220DB002002": {"id": "61435", "routes": ["123", "13", "27", "40", "49", "68x", "747", "77a", "77x"], "operator": "Dublin Bus", "latitude": 53.34377081, "longitude": -6.26944439, "stopno": "2002", "address": "Lord Edward Street"}, "8220DB000274": {"id": "22694", "routes": ["123", "140", "38", "38a", "38b", "38d"], "operator": "Dublin Bus", "latitude": 53.35034908, "longitude": -6.260720869, "stopno": "274", "address": "O'Connell St Upper"}, "8220DB001505": {"id": "43681", "routes": ["2"], "operator": "Dublin Bus", "latitude": 53.35402896, "longitude": -6.257896985, "stopno": "1505", "address": "Parnell Street"}, "8220DB004509": {"id": "56788", "routes": ["123", "53a"], "operator": "Dublin Bus", "latitude": 53.3559717, "longitude": -6.252454393, "stopno": "4509", "address": "Summerhill"}, "8220DB000499": {"id": "30151", "routes": ["2"], "operator": "Dublin Bus", "latitude": 53.35745034, "longitude": -6.249088627, "stopno": "499", "address": "Summerhill Parade"}, "8220DB000500": {"id": "13036", "routes": ["2"], "operator": "Dublin Bus", "latitude": 53.35903608, "longitude": -6.246289155, "stopno": "500", "address": "Ballybough Road"}, "8220DB000501": {"id": "64897", "routes": ["2"], "operator": "Dublin Bus", "latitude": 53.36070568, "longitude": -6.243696374, "stopno": "501", "address": "Clonliffe Avenue"}, "8220DB001484": {"id": "61145", "routes": ["2"], "operator": "Dublin Bus", "latitude": 53.36369771, "longitude": -6.239967029, "stopno": "1484", "address": "Philipsburgh Avenue"}, "8220DB001481": {"id": "60194", "routes": ["2"], "operator": "Dublin Bus", "latitude": 53.36505387, "longitude": -6.239896097, "stopno": "1481", "address": "Melrose Avenue"}, "8220DB007320": {"id": "3993", "routes": ["2"], "operator": "Dublin Bus", "latitude": 53.36850077, "longitude": -6.239588676, "stopno": "7320", "address": "Griffith Court"}, "8220DB001486": {"id": "566", "routes": ["2"], "operator": "Dublin Bus", "latitude": 53.37097478, "longitude": -6.238524809, "stopno": "1486", "address": "Morrogh Terrace"}, "8220DB001487": {"id": "17887", "routes": ["2"], "operator": "Dublin Bus", "latitude": 53.37181925, "longitude": -6.23667145, "stopno": "1487", "address": "Marino Institute"}, "8220DB001488": {"id": "2892", "routes": ["2"], "operator": "Dublin Bus", "latitude": 53.37108886, "longitude": -6.23468777, "stopno": "1488", "address": "Turlogh Parade"}, "8220DB001489": {"id": "51074", "routes": ["2"], "operator": "Dublin Bus", "latitude": 53.37015867, "longitude": -6.231961008, "stopno": "1489", "address": "Marino Church"}, "8220DB001490": {"id": "46593", "routes": ["2"], "operator": "Dublin Bus", "latitude": 53.36887682, "longitude": -6.228557662, "stopno": "1490", "address": "\u00c1rd Scoil R\u00eds"}, "8220DB001491": {"id": "65230", "routes": ["2"], "operator": "Dublin Bus", "latitude": 53.36846776, "longitude": -6.22764291, "stopno": "1491", "address": "Griffith Avenue"}, "8220DB001492": {"id": "42605", "routes": ["2"], "operator": "Dublin Bus", "latitude": 53.37025739, "longitude": -6.232558057, "stopno": "1492", "address": "Marino Church"}, "8220DB001493": {"id": "16302", "routes": ["2"], "operator": "Dublin Bus", "latitude": 53.3712134, "longitude": -6.235208627, "stopno": "1493", "address": "Turlogh Parade"}, "8220DB001482": {"id": "10953", "routes": ["2"], "operator": "Dublin Bus", "latitude": 53.37170858, "longitude": -6.236480646, "stopno": "1482", "address": "Marino Institute"}, "8220DB001494": {"id": "7897", "routes": ["2"], "operator": "Dublin Bus", "latitude": 53.37067301, "longitude": -6.235741942, "stopno": "1494", "address": "Croydon Park"}, "8220DB001495": {"id": "44044", "routes": ["2"], "operator": "Dublin Bus", "latitude": 53.36875594, "longitude": -6.235565697, "stopno": "1495", "address": "Croydon Park Avenue"}, "8220DB001496": {"id": "60247", "routes": ["2"], "operator": "Dublin Bus", "latitude": 53.36714812, "longitude": -6.233813838, "stopno": "1496", "address": "Marino Green"}, "8220DB001515": {"id": "38833", "routes": ["2"], "operator": "Dublin Bus", "latitude": 53.36611432, "longitude": -6.233195418, "stopno": "1515", "address": "Marino Park"}, "8220DB001499": {"id": "54423", "routes": ["2"], "operator": "Dublin Bus", "latitude": 53.36577949, "longitude": -6.237296587, "stopno": "1499", "address": "Brian Road"}, "8220DB001485": {"id": "67110", "routes": ["2"], "operator": "Dublin Bus", "latitude": 53.36404582, "longitude": -6.239802417, "stopno": "1485", "address": "Philipsburgh Avenue"}, "8220DB004518": {"id": "3493", "routes": ["2"], "operator": "Dublin Bus", "latitude": 53.3625825, "longitude": -6.24113993, "stopno": "4518", "address": "Fairview Strand"}, "8220DB000509": {"id": "53386", "routes": ["2"], "operator": "Dublin Bus", "latitude": 53.36060135, "longitude": -6.24332504, "stopno": "509", "address": "Ballybough Road"}, "8220DB000510": {"id": "8306", "routes": ["2"], "operator": "Dublin Bus", "latitude": 53.35918938, "longitude": -6.245711927, "stopno": "510", "address": "Charleville Avenue"}, "8220DB000511": {"id": "18683", "routes": ["2"], "operator": "Dublin Bus", "latitude": 53.35751559, "longitude": -6.248635233, "stopno": "511", "address": "Summerhill Parade"}, "8220DB000513": {"id": "47701", "routes": ["123", "53", "53a"], "operator": "Dublin Bus", "latitude": 53.35521196, "longitude": -6.253972768, "stopno": "513", "address": "Rutland Street"}, "8220DB004513": {"id": "3422", "routes": ["123", "53", "901"], "operator": "Dublin Bus", "latitude": 53.3539376, "longitude": -6.257795553, "stopno": "4513", "address": "Parnell Street"}, "8220DB000272": {"id": "59967", "routes": ["123", "700", "904"], "operator": "Dublin Bus", "latitude": 53.35146448, "longitude": -6.260780606, "stopno": "272", "address": "O'Connell St Upper"}, "8220DB000335": {"id": "20222", "routes": ["123", "13", "39", "39a", "40"], "operator": "Dublin Bus", "latitude": 53.34636141, "longitude": -6.25784917, "stopno": "335", "address": "D'Olier Street"}, "8220DB001934": {"id": "47184", "routes": ["123", "150", "151", "27", "49", "54a", "56a", "77a"], "operator": "Dublin Bus", "latitude": 53.34429056, "longitude": -6.265623469, "stopno": "1934", "address": "Dame Street"}, "8220DB001935": {"id": "30796", "routes": ["123", "13", "40", "747"], "operator": "Dublin Bus", "latitude": 53.34393435, "longitude": -6.268326352, "stopno": "1935", "address": "Lord Edward Street"}, "8220DB001937": {"id": "18067", "routes": ["123", "13", "40"], "operator": "Dublin Bus", "latitude": 53.3430875, "longitude": -6.273151674, "stopno": "1937", "address": "High Street"}, "8220DB001938": {"id": "50459", "routes": ["123", "13", "40"], "operator": "Dublin Bus", "latitude": 53.34297789, "longitude": -6.276760608, "stopno": "1938", "address": "Thomas Street"}, "8220DB001939": {"id": "50212", "routes": ["123", "13", "25n", "40", "69n"], "operator": "Dublin Bus", "latitude": 53.34299827, "longitude": -6.280664667, "stopno": "1939", "address": "Bridgefoot Street"}, "8220DB001940": {"id": "23546", "routes": ["123", "13", "40"], "operator": "Dublin Bus", "latitude": 53.3435386, "longitude": -6.285734348, "stopno": "1940", "address": "James Street"}, "8220DB001941": {"id": "51173", "routes": ["123", "13", "25n", "40", "69n"], "operator": "Dublin Bus", "latitude": 53.3433454, "longitude": -6.28918142, "stopno": "1941", "address": "Steeven's Lane"}, "8220DB004516": {"id": "39234", "routes": ["2"], "operator": "Dublin Bus", "latitude": 53.33995008, "longitude": -6.296871235, "stopno": "4516", "address": "St James's Hospital"}, "8220DB001369": {"id": "7980", "routes": ["123", "68", "68a"], "operator": "Dublin Bus", "latitude": 53.33886722, "longitude": -6.30224552, "stopno": "1369", "address": "Mayfield Road"}, "8220DB001370": {"id": "11954", "routes": ["123", "68", "68a"], "operator": "Dublin Bus", "latitude": 53.33918858, "longitude": -6.305251246, "stopno": "1370", "address": "Hybreasal House"}, "8220DB001371": {"id": "10467", "routes": ["123", "68", "68a"], "operator": "Dublin Bus", "latitude": 53.33887616, "longitude": -6.307936706, "stopno": "1371", "address": "Suir Road"}, "8220DB001454": {"id": "54038", "routes": ["2"], "operator": "Dublin Bus", "latitude": 53.33777555, "longitude": -6.30764991, "stopno": "1454", "address": "Suir Road Luas"}, "8220DB001455": {"id": "23117", "routes": ["2"], "operator": "Dublin Bus", "latitude": 53.33538512, "longitude": -6.30577746, "stopno": "1455", "address": "Slievenamon Road"}, "8220DB001453": {"id": "50434", "routes": ["2"], "operator": "Dublin Bus", "latitude": 53.33453617, "longitude": -6.306757101, "stopno": "1453", "address": "Galtymore Road"}, "8220DB001456": {"id": "22086", "routes": ["2"], "operator": "Dublin Bus", "latitude": 53.33487331, "longitude": -6.308981107, "stopno": "1456", "address": "Good Counsel GAA"}, "8220DB001457": {"id": "28666", "routes": ["2"], "operator": "Dublin Bus", "latitude": 53.33530266, "longitude": -6.312643038, "stopno": "1457", "address": "Benbulbin Road"}, "8220DB001458": {"id": "67502", "routes": ["2"], "operator": "Dublin Bus", "latitude": 53.33477062, "longitude": -6.316973575, "stopno": "1458", "address": "Davitt House"}, "8220DB001459": {"id": "42150", "routes": ["2"], "operator": "Dublin Bus", "latitude": 53.33406332, "longitude": -6.319719237, "stopno": "1459", "address": "Drimnagh CU"}, "8220DB001460": {"id": "55555", "routes": ["2"], "operator": "Dublin Bus", "latitude": 53.3323561, "longitude": -6.321032584, "stopno": "1460", "address": "Carrow Road"}, "8220DB001462": {"id": "52317", "routes": ["2"], "operator": "Dublin Bus", "latitude": 53.33046293, "longitude": -6.32382452, "stopno": "1462", "address": "Galtymore Park"}, "8220DB002102": {"id": "3302", "routes": ["123", "151", "18", "27", "56a", "77a", "77n"], "operator": "Go-Ahead", "latitude": 53.32419485, "longitude": -6.326141902, "stopno": "2102", "address": "Balfe Road"}, "8220DB002103": {"id": "26892", "routes": ["123", "27", "77a", "77n"], "operator": "Dublin Bus", "latitude": 53.3220827, "longitude": -6.329992417, "stopno": "2103", "address": "Walkinstown Road"}, "8220DB007154": {"id": "54165", "routes": ["2"], "operator": "Dublin Bus", "latitude": 53.32088002, "longitude": -6.333972233, "stopno": "7154", "address": "Walkinstown Green"}, "8220DB007153": {"id": "27643", "routes": ["2"], "operator": "Dublin Bus", "latitude": 53.32224363, "longitude": -6.335074982, "stopno": "7153", "address": "Walkinstown Drive"}, "8220DB006056": {"id": "22790", "routes": ["2"], "operator": "Dublin Bus", "latitude": 53.32168631, "longitude": -6.33185427, "stopno": "6056", "address": "Sisters of Charity"}, "8220DB007591": {"id": "59962", "routes": ["3"], "operator": "Dublin Bus", "latitude": 53.34889015, "longitude": -6.256829774, "stopno": "7591", "address": "Abbey Street"}, "8220DB000496": {"id": "25929", "routes": ["130", "14", "27", "27a", "27x", "29a", "29n", "31", "31a", "31b", "31n", "32", "32x", "53"], "operator": "Dublin Bus", "latitude": 53.34949688, "longitude": -6.252223579, "stopno": "496", "address": "Bus\u00e1ras"}, "8220DB000515": {"id": "64626", "routes": ["130", "14", "15", "27", "27a", "27b", "29a", "29n", "31", "31a", "31b", "31n", "32", "42", "43", "53", "902"], "operator": "Dublin Bus", "latitude": 53.35353487, "longitude": -6.248092401, "stopno": "515", "address": "Portland Row"}, "8220DB000516": {"id": "50960", "routes": ["130", "14", "15", "27", "27a", "27b", "29a", "31", "31a", "31b", "32", "42", "43", "53"], "operator": "Dublin Bus", "latitude": 53.35568392, "longitude": -6.245705684, "stopno": "516", "address": "North Strand Road"}, "8220DB004384": {"id": "53303", "routes": ["130", "14", "15", "27", "27a", "27b", "29a", "29n", "31", "31a", "31b", "31n", "32", "42", "43", "53"], "operator": "Dublin Bus", "latitude": 53.35768013, "longitude": -6.242709027, "stopno": "4384", "address": "Bayview Avenue"}, "8220DB000519": {"id": "11979", "routes": ["130", "14", "15", "27", "27a", "27b", "29a", "29n", "31", "31a", "31b", "31n", "32", "42", "43"], "operator": "Dublin Bus", "latitude": 53.36033876, "longitude": -6.239534529, "stopno": "519", "address": "North Strand Road"}, "8220DB000521": {"id": "6650", "routes": ["130", "14", "15", "27", "27a", "27b", "29a", "29n", "31", "31a", "31b", "31n", "32", "42", "43"], "operator": "Dublin Bus", "latitude": 53.36163705, "longitude": -6.237978461, "stopno": "521", "address": "Annesley Bridge Road"}, "8220DB000522": {"id": "50717", "routes": ["130", "14", "15", "27", "27a", "27b", "29a", "29n", "31", "31a", "31b", "31n", "32", "32x", "42", "43"], "operator": "Dublin Bus", "latitude": 53.36328895, "longitude": -6.235415975, "stopno": "522", "address": "Fairview"}, "8220DB000523": {"id": "19859", "routes": ["130", "14", "15", "27", "27a", "27b", "27x", "29a", "29n", "31", "31a", "31b", "31n", "32", "42", "43"], "operator": "Dublin Bus", "latitude": 53.36428545, "longitude": -6.231693332, "stopno": "523", "address": "Marino College"}, "8220DB001740": {"id": "6182", "routes": ["130", "31n"], "operator": "Dublin Bus", "latitude": 53.36414162, "longitude": -6.226845787, "stopno": "1740", "address": "Clontarf Road"}, "8220DB001741": {"id": "32844", "routes": ["104", "130", "31n", "32x"], "operator": "Go-Ahead", "latitude": 53.3631169, "longitude": -6.220802823, "stopno": "1741", "address": "Alfie Byrne Road"}, "8220DB001742": {"id": "12499", "routes": ["104", "130", "31n"], "operator": "Go-Ahead", "latitude": 53.36212579, "longitude": -6.216426585, "stopno": "1742", "address": "St Lawrence Road"}, "8220DB001743": {"id": "24178", "routes": ["104", "130", "31n"], "operator": "Go-Ahead", "latitude": 53.36113569, "longitude": -6.213928667, "stopno": "1743", "address": "The Court"}, "8220DB001744": {"id": "17152", "routes": ["130", "31n"], "operator": "Dublin Bus", "latitude": 53.36034864, "longitude": -6.208792977, "stopno": "1744", "address": "Scoil U\u00ed Chonaill"}, "8220DB001745": {"id": "26765", "routes": ["130", "31n"], "operator": "Dublin Bus", "latitude": 53.36034708, "longitude": -6.205697885, "stopno": "1745", "address": "Clontarf Baths"}, "8220DB001746": {"id": "45437", "routes": ["130", "31n"], "operator": "Dublin Bus", "latitude": 53.36025652, "longitude": -6.202666638, "stopno": "1746", "address": "Oultan Road"}, "8220DB001747": {"id": "35741", "routes": ["130", "31n", "32x"], "operator": "Dublin Bus", "latitude": 53.35935099, "longitude": -6.196860141, "stopno": "1747", "address": "John the Baptist Ch"}, "8220DB001748": {"id": "52147", "routes": ["130", "31n"], "operator": "Dublin Bus", "latitude": 53.35825702, "longitude": -6.193465762, "stopno": "1748", "address": "Fortview Avenue"}, "8220DB001749": {"id": "24659", "routes": ["130", "31n", "32x"], "operator": "Dublin Bus", "latitude": 53.35859037, "longitude": -6.19055194, "stopno": "1749", "address": "Clontarf Bus Garage"}, "8220DB001751": {"id": "36446", "routes": ["130", "31n"], "operator": "Dublin Bus", "latitude": 53.35981271, "longitude": -6.185812379, "stopno": "1751", "address": "Wooden Bridge"}, "8220DB001752": {"id": "63456", "routes": ["130", "31n"], "operator": "Dublin Bus", "latitude": 53.36112759, "longitude": -6.181849919, "stopno": "1752", "address": "Bull Island"}, "8220DB001753": {"id": "67836", "routes": ["130", "31n"], "operator": "Dublin Bus", "latitude": 53.36272396, "longitude": -6.178671573, "stopno": "1753", "address": "Dollymount Park"}, "8220DB001754": {"id": "31104", "routes": ["130", "31n"], "operator": "Dublin Bus", "latitude": 53.36411566, "longitude": -6.176809034, "stopno": "1754", "address": "Doyle's Lane"}, "8220DB001759": {"id": "19823", "routes": ["130", "31n"], "operator": "Dublin Bus", "latitude": 53.36600022, "longitude": -6.174264108, "stopno": "1759", "address": "The Oaks"}, "8220DB001758": {"id": "34562", "routes": ["3"], "operator": "Dublin Bus", "latitude": 53.36812968, "longitude": -6.175390292, "stopno": "1758", "address": "Mount Prospect Ave"}, "8220DB001750": {"id": "35704", "routes": ["3"], "operator": "Dublin Bus", "latitude": 53.3688677, "longitude": -6.177808329, "stopno": "1750", "address": "St Anne's Park"}, "8220DB001769": {"id": "52054", "routes": ["3"], "operator": "Dublin Bus", "latitude": 53.36888578, "longitude": -6.181940286, "stopno": "1769", "address": "Park Lawn"},